country,locality,yearCollected,eventID,principalInvestigator,samplingProtocol,sampleCollectionDeviceEvent,collectorList,continentOcean,municipality,county,dayCollected,locationID,locationRemarks,decimalLatitude,decimalLongitude,decimalLatitudeEnd,decimalLongitudeEnd,depthOfBottomInMeters,eventEnteredBy,habitat,environmentalMedium,horizontalDatum,island,islandGroup,waterBody,landowner,verbatimLocality,maximumDepthInMeters,maximumElevationInMeters,verbatimElevation,verbatimEventDate,coordinateUncertaintyInMeters,coordinatePrecision,georeferenceProtocol,microHabitat,minimumDepthInMeters,verbatimDepth,minimumElevationInMeters,monthCollected,permitInformation,eventRemarks,stateProvince,taxTeam,timeOfDay,verbatimLatitude,verbatimLongitude,fundingSource,fieldNotes,substratum,earliestEonOrLowestEonothem,latestEonOrHighestEonotheme,earliestEraOrLowestErathem,latestEraOrHighestErathem,earliestPeriodOrLowestSystem,latestPeriodOrHighestSystem,earliestEpochOrLowestSeries,latestEpochOrHighestSeries,earliestAgeOrLowestStage,latestAgeOrHighestStage,lowestBiostratigraphicZone,highestBiostratigraphicZone,geologicalContextID,latestChronometricAge,latestChronometricAgeReferenceSystem,earliestChronometricAge,earliestChronometricAgeReferenceSystem,chronometricAgeID,chronometricAgeProtocol,chronometricAgeUncertaintyMethod,chronometricAgeUncertaintyInYears,verbatimChronometricAge,materialDated,uncalibratedChronometricAge,chronometricAgeDeterminedBy,lithostratigraphicTerms,group,formation,member,bed,culturalContext,culturalOccupationPeriod,culturalRegions,culturalAffiliations,waterTemperatureInDegreesCelsius,waterSurfaceTemperatureInDegreesCelsius,bcid,expeditionCode,projectId
Indonesia,"Anyer Fish Market, Anyer, Krakatau",2005,0003e7cab588956b0df33169e5d48582,P. H. Barber,,,,,,,,,,-6.120368,105.415856,,,,,,,,,,,,,,,,,20000,,approximated from Google Maps,,,,,,"1187/SU/KS/2006, 04239/ SU.3/KS/2019",,,,,,,,,,,,,,,,,,,,,,,,,,,,,,,,,,,,,,,,,,,,,,https://n2t.net/ark:/21547/EAZ20003e7cab588956b0df33169e5d48582,ctPIRE-Ccun-mtDNA,453
Indonesia,Nudi Retreat,2005,0009ec03955ace8e3cc26bfce463c298,Paul Barber,Small ~2cm clip of arm taken with shears. Tube feet extracted.,,Eric Crandall,,,,7,,,1.483349929,125.2401333,,,,,,,,Sulawesi,,,,,20,,,,500,,GPS,,0,,,4,LIPI 1187/SU/KS/2006 and 04239/SU.3/KS/2006,,,,,,,NSF OCE-0349177; NSF DEB-0338808,,,,,,,,,,,,,,,,,,,,,,,,,,,,,,,,,,,,,,,https://n2t.net/ark:/21547/BPd20009ec03955ace8e3cc26bfce463c298,linlae_COI_EC,1
Indonesia,Adoki,2005,001678550392dd017c4be3663120c26f,Paul Barber,,,,,,,,,,-1.14217,135.994667,,,,,,,,Pulau Biak,,,,,,,,,2000,,Approximated from Google Maps,,,,,,LIPI 1187/SU/KS/2006 and 04239/SU.3/KS/2028,,Papua,,,,,,,,,,,,,,,,,,,,,,,,,,,,,,,,,,,,,,,,,,,,https://n2t.net/ark:/21547/BVE2001678550392dd017c4be3663120c26f,Sialae_COI_PB,1
Indonesia,Nudi Retreat,2005,001fa85cb07de2a30fc5d08c81071f69,Paul Barber,Small ~2cm clip of arm taken with shears. Tube feet extracted.,,Eric Crandall,,,,7,,,1.483349929,125.2401333,,,,,,,,Sulawesi,,,,,20,,,,500,,GPS,,0,,,4,LIPI 1187/SU/KS/2006 and 04239/SU.3/KS/2006,,,,,,,NSF OCE-0349177; NSF DEB-0338819,,,,,,,,,,,,,,,,,,,,,,,,,,,,,,,,,,,,,,,https://n2t.net/ark:/21547/BPd2001fa85cb07de2a30fc5d08c81071f69,linlae_COI_EC,1
Indonesia,Adoki,2005,0041b20b474a19215ccfe8099ee0b079,Paul Barber,,,,,,,,,,-1.14217,135.994667,,,,,,,,Pulau Biak,,,,,,,,,2000,,Approximated from Google Maps,,,,,,LIPI 1187/SU/KS/2006 and 04239/SU.3/KS/2037,,Papua,,,,,,,,,,,,,,,,,,,,,,,,,,,,,,,,,,,,,,,,,,,,https://n2t.net/ark:/21547/BVE20041b20b474a19215ccfe8099ee0b079,Sialae_COI_PB,1
Australia,Tuesday Island,2010,005e41bd11f58f75756b1d7edcf68720,Riginos,tissue,,Liggins/Keyse,,,,23,,,-10.543725,142.34715,,,,,,,,,,,,,2,,,,,,Eric's GPS,,2,,,11,"Commonwealth of Australia Torres Strait Fisheries Act 1984 Permit for Scientific purposes; Australian Fisheries Management Authority, Thursday Island",no photo,Torres Strait Islands,,,,,ARC_DP0878306,,,,,,,,,,,,,,,,,,,,,,,,,,,,,,,,,,,,,,,https://n2t.net/ark:/21547/BYk2005e41bd11f58f75756b1d7edcf68720,Tridacnaspecies_variouslocations_COI,1
Indonesia,North Salawati,2005,006be57d5699c35467d11ab62d58693c,Paul Barber,,,,,,,,,,-0.894502,130.87532,,,,,,,,Salawati,,,,,,,,,20000,,Approximated from Google Maps,,,,,,LIPI 1187/SU/KS/2006 and 04239/SU.3/KS/2126,,West Papua,,,,,,,,,,,,,,,,,,,,,,,,,,,,,,,,,,,,,,,,,,,,https://n2t.net/ark:/21547/BNg2006be57d5699c35467d11ab62d58693c,Hopsai_COI_PB,1
Portugal,Algarve,2018,0074c789f017b500622b27167bc458e4,Pierre-Alexandre GAGNAIRE,Fishmarket,,Gagnaire|Barry|Schlichta,North-East Atlantic Ocean,Olhao,,16,Fa,Mercado do Peixe,37.02364,-7.84163,,,,PAG,marine reef biome,,,,,,,,,,,,10000,,,NA,,,,10,NA,,,,,,,ANR-17-CE02-0006-01,,,,,,,,,,,,,,,,,,,,,,,,,,,,,,,,,,,,,,,https://n2t.net/ark:/21547/Dhs20074c789f017b500622b27167bc458e4,CoGeDiv_Genetic_Diversity_Barry_et_al_2021,357
Australia,Lihou Reef,2008,00b61398163f06e511aafe0c8cbecd07,Cynthia Riginos,tissue,,Treml,,,,12,,,-17.14436667,151.8178167,,,,,,,,,,,,,5,,,,,,GPS,,5,,,12,AU-COM2008042; Australian Government,25cm,Coral Sea,,,,,ARC_DP0878306,,,,,,,,,,,,,,,,,,,,,,,,,,,,,,,,,,,,,,,https://n2t.net/ark:/21547/BLg200b61398163f06e511aafe0c8cbecd07,halhor_CR_ll,1
Indonesia,Pulau Tidore,2005,00be785059dabc9a6ba06ad063074810,Paul Barber,,,,,,,,,,0.690916,127.412615,,,,,,,,Pulau Tidore,,,,,,,,,12000,,Approximated from Google Maps,,,,,,LIPI 1187/SU/KS/2006 and 04239/SU.3/KS/2096,,North Maluku,,,,,,,,,,,,,,,,,,,,,,,,,,,,,,,,,,,,,,,,,,,,https://n2t.net/ark:/21547/BVE200be785059dabc9a6ba06ad063074810,Sialae_COI_PB,1
Australia,Heron Island,2008,00f27e346be0a0af62ad5b970c6b66ca,Cynthia Riginos,tissue,,Treml/Riginos,,,,11,,,-23.45505,151.9236167,,,,,,,,,,,,,11,,,,,,GPS,,11,,,,"""G08/28114.1; Queensland Government""",no full body,Great Barrier Reef,,,,,ARC_DP0878306,,,,,,,,,,,,,,,,,,,,,,,,,,,,,,,,,,,,,,,https://n2t.net/ark:/21547/BSa200f27e346be0a0af62ad5b970c6b66ca,pomcoe_CO1_CR,1
Australia,Heron Island,2008,00f27e346be0a0af62ad5b970c6b66ca,Cynthia Riginos,tissue,,Treml/Riginos,,,,11,,,-23.45505,151.9236167,,,,,,,,,,,,,11,,,,,,GPS,,11,,,,"""G08/28114.1; Queensland Government""",no full body,Great Barrier Reef,,,,,ARC_DP0878306,,,,,,,,,,,,,,,,,,,,,,,,,,,,,,,,,,,,,,,https://n2t.net/ark:/21547/BSm200f27e346be0a0af62ad5b970c6b66ca,pomcoe_CR_CR,1
Philippines,PadarawResort,2010,00fa46692dae9feb9c90daa82064a7f4,Kazuo Nadaoka,tube feet wre taken with tweezers,,Coralie Taquet,,,,,,,13.04340278,124.06555,,,,,Coral Reef,,,Verde Island,Verde Island Passage,,,,,,,,5000,,Google Maps,,,,,12,AllPermitInfoAvailable in working files Coralie TAQUET-folderInNadaokaLab,,,,,,,"the Global Environment Research Fund (D-0802) of the Ministry of the Environment, Grant-in-Aid-for Research Fellows (No. 2002647) of JSPS (The Japan Society for the Promotion of Science)",,,,,,,,,,,,,,,,,,,,,,,,,,,,,,,,,,,,,,,https://n2t.net/ark:/21547/BJN200fa46692dae9feb9c90daa82064a7f4,culnov_CO1_ec,1
Indonesia,"""Alam Kotok, Pulau Seribu""",Unknown,0108c6fa333361048de7b7662a933d5e,Paul Barber,"""Obstruct operculum from closing, place in 95% EtOH""",,Eric Crandall,,,,,,,-5.69965,106.5381167,,,,,Intertidal,,,Alam Kotok,,,,,1,4,,,500,,GPS,,,,,,LIPI 1187/SU/KS/2006 and 04239/SU.3/KS/2039,,,,,,,DEB-0508788; DEB-0338566; OCE 0349177; IBN-0416713; OCE-06_23699; Lerner-Grey Fund; Conchologists of America,,,,,,,,,,,,,,,,,,,,,,,,,,,,,,,,,,,,,,,https://n2t.net/ark:/21547/BRd20108c6fa333361048de7b7662a933d5e,nerpli_CO1_EC,1
Indonesia,Adoki,2005,011cec75d6a50ea9e31b720506d74aa4,Paul Barber,,,,,,,,,,-1.14217,135.994667,,,,,,,,Pulau Biak,,,,,,,,,2000,,Approximated from Google Maps,,,,,,LIPI 1187/SU/KS/2006 and 04239/SU.3/KS/2019,,Papua,,,,,,,,,,,,,,,,,,,,,,,,,,,,,,,,,,,,,,,,,,,,https://n2t.net/ark:/21547/BVE2011cec75d6a50ea9e31b720506d74aa4,Sialae_COI_PB,1
Indonesia,Murex Resort 2,2005,01283043df53d9f01fce5373c0a0b4a2,Paul Barber,Small ~2cm clip of arm taken with shears. Tube feet extracted.,,Eric Crandall,,,,8,,,1.735866694,125.14915,,,,,,,,Bangka,,,,,20,,,,500,,GPS,,0,,,4,LIPI 1187/SU/KS/2006 and 04239/SU.3/KS/2006,,,,,,,NSF OCE-0349177; NSF DEB-0338879,,,,,,,,,,,,,,,,,,,,,,,,,,,,,,,,,,,,,,,https://n2t.net/ark:/21547/BPd201283043df53d9f01fce5373c0a0b4a2,linlae_COI_EC,1
Indonesia,"Selayar Fish Market, Selayar, Sulawesi",2006,01332a0b60851327c9edafec3541faf8,P. H. Barber,,,,,,,27,,,-6.152319,120.65016,,,,,,,,,,,,,,,,,20000,,approximated from Google Maps,,,,,,"1187/SU/KS/2006, 04239/ SU.3/KS/2135",,,,,,,,,,,,,,,,,,,,,,,,,,,,,,,,,,,,,,,,,,,,,,https://n2t.net/ark:/21547/EAZ201332a0b60851327c9edafec3541faf8,ctPIRE-Ccun-mtDNA,453
USA,Natural Energy Laboratory of Hawaiian Authority (NELHA),2008,013a30b03bdcb62ff690a21cb4f842ab,Matthew Iacchei,small piece of antenna or leg is broken off,,"""Matt Iacchei, Kosta Stamoulis, Derek Skillings""",,,,25,,,19.718076,-156.052933,,,,,coral reef,,,Hawaii,Hawaiian Archipelago,,,,6,,,,,,Google Maps,,4,,,4,DLNR SAP #2008-99,,Hawaii,,,,,,,,,,,,,,,,,,,,,,,,,,,,,,,,,,,,,,,,,,,,https://n2t.net/ark:/21547/BRv2013a30b03bdcb62ff690a21cb4f842ab,Panpen_COI_MI,1
Australia,Ashmore Reef,2009,015fffd4cf1bda6a0d1a876f79b475a9,Cynthia Riginos,tissue,,Liggins,,,,12,,,-12.30718333,122.9852167,,,,,,,,,,,,,4,,,,,,GPS,,4,,,5,"""AU-COM2010129; Department of Environment, Water, Heritage and Arts""","""photo, whole fish kept""",Western Australia,,,,,ARC_DP0878306,,,,,,,,,,,,,,,,,,,,,,,,,,,,,,,,,,,,,,,https://n2t.net/ark:/21547/BTK2015fffd4cf1bda6a0d1a876f79b475a9,pomcoe_CR_ll,1
Indonesia,Malalayan,2010,01898a499ec780bc5311e878da149e24,Kazuo Nadaoka,tube feet wre taken with tweezers,,Coralie Taquet,,,,,,,1.70405,124.8548889,,,,,Coral Reef,,,,,,,,,,,,5000,,Google Maps,,,,,2,AllPermitInfoAvailable in working files Coralie TAQUET-folderInNadaokaLab,,,,,,,"the Global Environment Research Fund (D-0802) of the Ministry of the Environment, Grant-in-Aid-for Research Fellows (No. 2002532) of JSPS (The Japan Society for the Promotion of Science)",,,,,,,,,,,,,,,,,,,,,,,,,,,,,,,,,,,,,,,https://n2t.net/ark:/21547/BJN201898a499ec780bc5311e878da149e24,culnov_CO1_ec,1
Papua New Guinea,Kavieng,2011,0191a4e1ead2b31e74cd01a85e36a1f9,Cynthia Riginos,muscle,,Keyse,,,,23,,,-2.58,150.7381833,,,,,,,,,,,,,2,,,,,,"""Google Earth, not 100% sure of reef patch location""",,2,,,11,research visa no. 10350008304; Dept Env & Conservation/Nat Research Institute,,New Ireland Province,,,,,ARC_DP0878306,,,,,,,,,,,,,,,,,,,,,,,,,,,,,,,,,,,,,,,https://n2t.net/ark:/21547/BLg20191a4e1ead2b31e74cd01a85e36a1f9,halhor_CR_ll,1
Indonesia,Tonuu,2005,01a1e58890acb532b7a43ff045e10c91,Paul Barber,Small ~2cm clip of arm taken with shears. Tube feet extracted.,,Eric Crandall,,,,26,,,1.798433341,127.9994833,,,,,,,,Halmahera,,,,,20,,,,500,,GPS,,0,,,5,LIPI 1187/SU/KS/2006 and 04239/SU.3/KS/2006,,,,,,,NSF OCE-0349177; NSF DEB-0338979,,,,,,,,,,,,,,,,,,,,,,,,,,,,,,,,,,,,,,,https://n2t.net/ark:/21547/BPd201a1e58890acb532b7a43ff045e10c91,linlae_COI_EC,1
Indonesia,"Karimunjawa Fish Market, Karimunjawa, Java",2005,01b3beb6b0cb182a4d940201f136362b,P. H. Barber,,,,,,,18,,,-5.871762,110.414604,,,,,,,,,,,,,,,,,20000,,approximated from Google Maps,,,,,,"1187/SU/KS/2006, 04239/ SU.3/KS/2122",,,,,,,,,,,,,,,,,,,,,,,,,,,,,,,,,,,,,,,,,,,,,,https://n2t.net/ark:/21547/EAZ201b3beb6b0cb182a4d940201f136362b,ctPIRE-Ccun-mtDNA,453
Indonesia,Halmahera,2005,01b9080dffa7ccfd752226e9bebeed9b,Paul Barber,,,,,,,,,,0.730142,128.449745,,,,,,,,Kararorika Island,,,,,,,,,500000,,Approximated from Google Maps,,,,,,LIPI 1187/SU/KS/2006 and 04239/SU.3/KS/2127,,North Maluku,,,,,,,,,,,,,,,,,,,,,,,,,,,,,,,,,,,,,,,,,,,,https://n2t.net/ark:/21547/BMj201b9080dffa7ccfd752226e9bebeed9b,hapham_COI_PB,1
Indonesia,Anak Krakatau,2005,01cbbb20839d435ebad5ab7451f713ed,Paul Barber,small clip of mantle taken with scissors,,,,,,24,,,-6.090416667,105.41825,,,,,Coral Reef,,,,,,,,,,,,500,,GPS,,,,,3,LIPI 1187/SU/KS/2006 and 04239/SU.3/2006,,,,,,,,,,,,,,,,,,,,,,,,,,,,,,,,,,,,,,,,,,,,,,https://n2t.net/ark:/21547/BXE201cbbb20839d435ebad5ab7451f713ed,trispp_COI_all,1
Indonesia,Station 16,1999,01fadd5b6c99e01df7be3e7415055cf2,Paul Barber,,,,,,,,,,-0.342511,122.003996,,,,,,,,Togian Islands,,,,,,,,,100000,,Approximated from Google Maps,,,,,,LIPI 1187/SU/KS/2006 and 04239/SU.3/KS/2073,,Central Sulawesi,,,,,,,,,,,,,,,,,,,,,,,,,,,,,,,,,,,,,,,,,,,,https://n2t.net/ark:/21547/BNg201fadd5b6c99e01df7be3e7415055cf2,Hopsai_COI_PB,1
Philippines,Caban,2010,020c4393bb560042600c08b7ad50eb1e,Kazuo Nadaoka,tube feet wre taken with tweezers,,Coralie Taquet,,,,,,,13.68535833,120.8397556,,,,,Coral Reef,,,Verde Island,Verde Island Passage,,,,,,,,5000,,Google Maps,,,,,12,AllPermitInfoAvailable in working files Coralie TAQUET-folderInNadaokaLab,,,,,,,"the Global Environment Research Fund (D-0802) of the Ministry of the Environment, Grant-in-Aid-for Research Fellows (No. 2002543) of JSPS (The Japan Society for the Promotion of Science)",,,,,,,,,,,,,,,,,,,,,,,,,,,,,,,,,,,,,,,https://n2t.net/ark:/21547/BJN2020c4393bb560042600c08b7ad50eb1e,culnov_CO1_ec,1
Indonesia,"Jimbaran Fish Market, Bali",2010,020d31b6b978f42a8830708b158c33d3,P. H. Barber,,,,,,,21,,,-8.741076,115.145632,,,,,,,,,,,,,,,,,20000,,approximated from Google Maps,,,,,,0119/FRPSM/VI/2035,,,,,,,,,,,,,,,,,,,,,,,,,,,,,,,,,,,,,,,,,,,,,,https://n2t.net/ark:/21547/EAZ2020d31b6b978f42a8830708b158c33d3,ctPIRE-Ccun-mtDNA,453
Indonesia,"""Alam Kotok, Pulau Seribu""",Unknown,0225bae96ae881e9e5d8fc885f40738c,Paul Barber,"""Obstruct operculum from closing, place in 95% EtOH""",,Eric Crandall,,,,,,,-5.69965,106.5381167,,,,,Intertidal,,,Alam Kotok,,,,,1,4,,,500,,GPS,,,,,,LIPI 1187/SU/KS/2006 and 04239/SU.3/KS/2046,,,,,,,DEB-0508788; DEB-0338566; OCE 0349177; IBN-0416713; OCE-06_23699; Lerner-Grey Fund; Conchologists of America,,,,,,,,,,,,,,,,,,,,,,,,,,,,,,,,,,,,,,,https://n2t.net/ark:/21547/BRd20225bae96ae881e9e5d8fc885f40738c,nerpli_CO1_EC,1
Indonesia,Yapen-Pulau Ambai,2005,0233511eb8fb8c2f3459503d8b917efa,Paul Barber,small clip of mantle taken with scissors,,,,,,7,,,-1.960616724,136.3205333,,,,,Coral Reef,,,,,,,,,,,,500,,GPS,,,,,4,LIPI 1187/SU/KS/2006 and 04239/SU.3/KS/2006,,,,,,,,,,,,,,,,,,,,,,,,,,,,,,,,,,,,,,,,,,,,,,https://n2t.net/ark:/21547/BXE20233511eb8fb8c2f3459503d8b917efa,trispp_COI_all,1
Australia,Mooloolaba,2009,0249a6347ad37ab525bde02f555ef346,Cynthia Riginos,gonads,,Treml/Liggins,,,,25,,,-26.68793,153.1322,,,,,,,,,,,,,2,,,,,,GPS,,2,,,7,QLD18636; QLD Dept of Fisheries,photo 2,Brisbane,,,,,ARC_DP0878306,,,,,,,,,,,,,,,,,,,,,,,,,,,,,,,,,,,,,,,https://n2t.net/ark:/21547/BWm20249a6347ad37ab525bde02f555ef346,trigra_CO1_ll,1
Indonesia,Alam Kotok,2005,026856a08c14b4ea7706ae5d09611fca,Paul Barber,Small ~2cm clip of arm taken with shears. Tube feet extracted.,,Eric Crandall,,,,28,,,-5.69965,106.5381167,,,,,,,,Alam Kotok,Pulau_Seribu,,,,20,,,,500,,GPS,,0,,,3,LIPI 1187/SU/KS/2006 and 04239/SU.3/KS/2006,,,,,,,NSF OCE-0349177; NSF DEB-0338791,,,,,,,,,,,,,,,,,,,,,,,,,,,,,,,,,,,,,,,https://n2t.net/ark:/21547/BPd2026856a08c14b4ea7706ae5d09611fca,linlae_COI_EC,1
Portugal,Algarve,2018,0281808cc9de58ac020051de53bdc218,Pierre-Alexandre GAGNAIRE,Scientific tuna trap,,Lechuga,North-East Atlantic Ocean,Olhao,,18,Fa,Collected by IPMA,36.94126,-7.80229,,,,PAG,marine pelagic biome,,,,,,,,,,,,100000,,,NA,,,,10,NA,,,,,,,ANR-17-CE02-0006-01,,,,,,,,,,,,,,,,,,,,,,,,,,,,,,,,,,,,,,,https://n2t.net/ark:/21547/Dhs20281808cc9de58ac020051de53bdc218,CoGeDiv_Genetic_Diversity_Barry_et_al_2021,357
Indonesia,Sebuku1,2005,028197ce7f8063ea3354bfdb9dafa6b3,Paul Barber,Small ~2cm clip of arm taken with shears. Tube feet extracted.,,Eric Crandall,,,,26,,,-5.879666666,105.5338167,,,,,,,,Sebuku,Krakatau,,,,20,,,,500,,GPS,,0,,,3,LIPI 1187/SU/KS/2006 and 04239/SU.3/KS/2006,,,,,,,NSF OCE-0349177; NSF DEB-0338698,,,,,,,,,,,,,,,,,,,,,,,,,,,,,,,,,,,,,,,https://n2t.net/ark:/21547/BPd2028197ce7f8063ea3354bfdb9dafa6b3,linlae_COI_EC,1
Australia,Lihou Reef,2008,0293d7ef98facad27f2ed438e3b31a97,Cynthia Riginos,tissue,,Treml,,,,10,,,-17.40328333,151.8992167,,,,,,,,,,,,,4,,,,,,GPS,,4,,,12,AU-COM2008042; Australian Government,1cm long,Coral Sea,,,,,ARC_DP0878306,,,,,,,,,,,,,,,,,,,,,,,,,,,,,,,,,,,,,,,https://n2t.net/ark:/21547/BLg20293d7ef98facad27f2ed438e3b31a97,halhor_CR_ll,1
Indonesia,Pulau Lemon,2005,0295f0274835308801334ae326f48d07,Paul Barber,Small ~2cm clip of arm taken with shears. Tube feet extracted.,,Eric Crandall,,,,8,,,-0.890116679,134.08165,,,,,,,,Pulau Lemon,,,,,20,,,,500,,GPS,,0,,,9,LIPI 1187/SU/KS/2006 and 04239/SU.3/KS/2006,,,,,,,NSF OCE-0349177; NSF DEB-0339076,,,,,,,,,,,,,,,,,,,,,,,,,,,,,,,,,,,,,,,https://n2t.net/ark:/21547/BPd20295f0274835308801334ae326f48d07,linlae_COI_EC,1
Indonesia,Manado - Murex House Reef,Unknown,02b2fd4a54696769d62dda39c3dacb5f,Paul Barber,"""Obstruct operculum from closing, place in 95% EtOH""",,Eric Crandall,,,,,,,1.4572,124.76225,,,,,Intertidal,,,Sulawesi,,,,,1,4,,,500,,GPS,,,,,,LIPI 1187/SU/KS/2006 and 04239/SU.3/KS/2077,,,,,,,DEB-0508788; DEB-0338566; OCE 0349177; IBN-0416713; OCE-06_23699; Lerner-Grey Fund; Conchologists of America,,,,,,,,,,,,,,,,,,,,,,,,,,,,,,,,,,,,,,,https://n2t.net/ark:/21547/BRd202b2fd4a54696769d62dda39c3dacb5f,nerpli_CO1_EC,1
Vietnam,Sesan,2016,02bd3f7b51bdb6e448a843230437c772,Kent E. Carpenter & Binh Thuy Dang,,,,,,,6,,,13.542424,106.054279,,,,,,,,,,,,,,,,,15000,,Approximated from Google Maps,,,,,12,NA,,,,,,,,,,,,,,,,,,,,,,,,,,,,,,,,,,,,,,,,,,,,,,https://n2t.net/ark:/21547/Chy202bd3f7b51bdb6e448a843230437c772,MEKONG,89
Indonesia,Halmahera,2005,02ed36ca87a31f5fa7ca8acb33274192,Paul Barber,,,,,,,,,,0.730142,128.449745,,,,,,,,Kararorika Island,,,,,,,,,500000,,Approximated from Google Maps,,,,,,LIPI 1187/SU/KS/2006 and 04239/SU.3/KS/2066,,North Maluku,,,,,,,,,,,,,,,,,,,,,,,,,,,,,,,,,,,,,,,,,,,,https://n2t.net/ark:/21547/BVE202ed36ca87a31f5fa7ca8acb33274192,Sialae_COI_PB,1
Indonesia,Tanjung Jerewai,2005,02f34ecd18951afbcf89f80f96931143,Paul Barber,Small ~2cm clip of arm taken with shears. Tube feet extracted.,,Eric Crandall,,,,30,,,1.520216667,128.7004,,,,,,,,Halmahera,,,,,20,,,,500,,GPS,,0,,,5,LIPI 1187/SU/KS/2006 and 04239/SU.3/KS/2006,,,,,,,NSF OCE-0349177; NSF DEB-0339003,,,,,,,,,,,,,,,,,,,,,,,,,,,,,,,,,,,,,,,https://n2t.net/ark:/21547/BPd202f34ecd18951afbcf89f80f96931143,linlae_COI_EC,1
Indonesia,West Tip of Serui,2005,02f68315733500d5af3e5e35b07d270b,Paul Barber,Small ~2cm clip of arm taken with shears. Tube feet extracted.,,Eric Crandall,,,,6,,,-1.905283366,136.2275333,,,,,,,,Yapen,,,,,20,,,,500,,GPS,,0,,,4,LIPI 1187/SU/KS/2006 and 04239/SU.3/KS/2006,,,,,,,NSF OCE-0349177; NSF DEB-0338930,,,,,,,,,,,,,,,,,,,,,,,,,,,,,,,,,,,,,,,https://n2t.net/ark:/21547/BPd202f68315733500d5af3e5e35b07d270b,linlae_COI_EC,1
Philippines,"""Lucero, Santiago Is., Bolinao""",2008,03060876bf581cede66292e7f3f0d5d3,Marie Antonette Menez,,,,,,,11,,,16.4,119.91,,,,,Seagrass,,,,,,,,,,,,10000,,,,,,,11,"""Collected under gratuitous permit from BFAR to ODU and UPMSI, amended October 2, 2008""",,Pangasinan,,,,,CT-PIRE: OISE-0730256; DOST-ASTHRDP,,,,,,,,,,,,,,,,,,,,,,,,,,,,,,,,,,,,,,,https://n2t.net/ark:/21547/BWg203060876bf581cede66292e7f3f0d5d3,Trigra_CO1_ic,1
Indonesia,"Nampale, Misool, Raja Ampat",2005,033c954ff6ff6b24c34e5ac0a9e892e3,P. H. Barber,,,,,,,,,,-1.812632,129.67013,,,,,,,,,,,,,,,,,20000,,approximated from Google Maps,,,,,,"1187/SU/KS/2006, 04239/ SU.3/KS/2170",,,,,,,,,,,,,,,,,,,,,,,,,,,,,,,,,,,,,,,,,,,,,,https://n2t.net/ark:/21547/EAZ2033c954ff6ff6b24c34e5ac0a9e892e3,ctPIRE-Ccun-mtDNA,453
Papua New Guinea,Bootless Bay,2011,036eeedcb99884cc68f39333ae857453,Cynthia Riginos,gonad tissue,,Keyse,,,,14,,,-9.53,147.2826333,,,,,,,,,,,,,2,,,,,,"""Google Earth, not 100% sure of reef patch location""",,2,,,11,research visa no. 10350008304; Dept Env & Conservation/Nat Research Institute,,Central Province,,,,,ARC_DP0878306,,,,,,,,,,,,,,,,,,,,,,,,,,,,,,,,,,,,,,,https://n2t.net/ark:/21547/BWm2036eeedcb99884cc68f39333ae857453,trigra_CO1_ll,1
Indonesia,"""Alam Kotok, Pulau Seribu""",Unknown,038540e3b73452645f83a85c1d4d4176,Paul Barber,"""Obstruct operculum from closing, place in 95% EtOH""",,Eric Crandall,,,,,,,-5.69965,106.5381167,,,,,Intertidal,,,Alam Kotok,,,,,1,4,,,500,,GPS,,,,,,LIPI 1187/SU/KS/2006 and 04239/SU.3/KS/2057,,,,,,,DEB-0508788; DEB-0338566; OCE 0349177; IBN-0416713; OCE-06_23699; Lerner-Grey Fund; Conchologists of America,,,,,,,,,,,,,,,,,,,,,,,,,,,,,,,,,,,,,,,https://n2t.net/ark:/21547/BRd2038540e3b73452645f83a85c1d4d4176,nerpli_CO1_EC,1
Spain,Costa Calida,2018,038d058e86f4419dc69a3298ae82b830,Pierre-Alexandre GAGNAIRE,Fishmarket,,Gagnaire|Barry,West Mediterranean Sea,Cartagena,,6,Mu,La Lonja del Pescado,37.59846,-0.97618,,,,PAG,marine pelagic biome,,,,,,,,,,,,100000,,,NA,,,,11,NA,,,,,,,ANR-17-CE02-0006-01,,,,,,,,,,,,,,,,,,,,,,,,,,,,,,,,,,,,,,,https://n2t.net/ark:/21547/Dhs2038d058e86f4419dc69a3298ae82b830,CoGeDiv_Genetic_Diversity_Barry_et_al_2021,357
Indonesia,Manado - Murex House Reef,Unknown,03c5ab5de7dbc2ae63921c64e4ba1420,Paul Barber,"""Obstruct operculum from closing, place in 95% EtOH""",,Eric Crandall,,,,,,,1.4572,124.76225,,,,,Intertidal,,,Sulawesi,,,,,1,4,,,500,,GPS,,,,,,LIPI 1187/SU/KS/2006 and 04239/SU.3/KS/2090,,,,,,,DEB-0508788; DEB-0338566; OCE 0349177; IBN-0416713; OCE-06_23699; Lerner-Grey Fund; Conchologists of America,,,,,,,,,,,,,,,,,,,,,,,,,,,,,,,,,,,,,,,https://n2t.net/ark:/21547/BRd203c5ab5de7dbc2ae63921c64e4ba1420,nerpli_CO1_EC,1
East Timor,Lautem,2011,03c943030c7aa6b26a4d56b6d535fee5,Cynthia Riginos,tissue sample,,Liggins,,,,25,,,-8.41,127.32,,,,,,,,,,,,,4,,,,,,"""Google Earth, rough area, not 100% sure of reef location""",,4,,,7,"""Ministufffdrio da Aquicultura e Pescas, Direcufffdufffdo Nacional de Pescas e Aquicultura (authorised by A Fernandes, L Fontes, J Freitas; guia de marssa: 502/DNPA/VIII/10 and 452/DNPA/VII/11). Export of samples was authorised by the Departmento de Quarentena das Pescas (export permit: 162/FQ006/EXP./DNQB/VII/2011)""",,Timor Leste,,,,,ARC_DP0878306,,,,,,,,,,,,,,,,,,,,,,,,,,,,,,,,,,,,,,,https://n2t.net/ark:/21547/BJy203c943030c7aa6b26a4d56b6d535fee5,dastri_CR_ll,1
Indonesia,"Medan Fish Market, Medan, Sumatra",2006,03ca8bb9f57a949514e4ec3ef78b5e8f,P. H. Barber,,,,,,,18,,,4.000255,98.831527,,,,,,,,,,,,,,,,,20000,,approximated from Google Maps,,,,,,"1187/SU/KS/2006, 04239/ SU.3/KS/2097",,,,,,,,,,,,,,,,,,,,,,,,,,,,,,,,,,,,,,,,,,,,,,https://n2t.net/ark:/21547/EAZ203ca8bb9f57a949514e4ec3ef78b5e8f,ctPIRE-Ccun-mtDNA,453
Indonesia,Tidore,2005,03cc80ee6b47fd17204f654a739f14f3,Paul Barber,Small ~2cm clip of arm taken with shears. Tube feet extracted.,,Eric Crandall,,,,27,,,0.753450028,127.40935,,,,,,,,Halmahera,,,,,20,,,,500,,GPS,,0,,,5,LIPI 1187/SU/KS/2006 and 04239/SU.3/KS/2006,,,,,,,NSF OCE-0349177; NSF DEB-0338959,,,,,,,,,,,,,,,,,,,,,,,,,,,,,,,,,,,,,,,https://n2t.net/ark:/21547/BPd203cc80ee6b47fd17204f654a739f14f3,linlae_COI_EC,1
Indonesia,"Bitung Fish Market, Manado",2005,03d285f77154dff9f1f57019e1f2282a,P. H. Barber,,,,,,,,,,1.380464,125.169923,,,,,,,,,,,,,,,,,20000,,approximated from Google Maps,,,,,,"1187/SU/KS/2006, 04239/ SU.3/KS/2013",,,,,,,,,,,,,,,,,,,,,,,,,,,,,,,,,,,,,,,,,,,,,,https://n2t.net/ark:/21547/EAZ203d285f77154dff9f1f57019e1f2282a,ctPIRE-Ccun-mtDNA,453
Indonesia,Kri,2005,03efb75b3410a8956e4153dab742ee40,Paul Barber,Small ~2cm clip of arm taken with shears. Tube feet extracted.,,Eric Crandall,,,,15,,,-0.5564,130.6780167,,,,,,,,Kri,Raja_Ampat,,,,20,,,,500,,GPS,,0,,,1,LIPI 1187/SU/KS/2006 and 04239/SU.3/KS/2006,,,,,,,NSF OCE-0349177; NSF DEB-0339102,,,,,,,,,,,,,,,,,,,,,,,,,,,,,,,,,,,,,,,https://n2t.net/ark:/21547/BPd203efb75b3410a8956e4153dab742ee40,linlae_COI_EC,1
Australia,Point Cartwright,2016,03f5bf95da9ffd8d665a4bd778a502c6,Cynthia Riginos,hand nets,,,,,,12,,,-26.678996,153.136579,,,,,,,,,,,,,,,,,0,,Google Maps,,,,,3,#150981 - QLD General Fisheries,,,,,,,,,,,,,,,,,,,,,,,,,,,,,,,,,,,,,,,,,,,,,,https://n2t.net/ark:/21547/DLa203f5bf95da9ffd8d665a4bd778a502c6,Thia_2019_Bathygobius_cocosensis_pool_ezRAD,201
Portugal,Algarve,2018,0401db202eacb6bd4cbe0f76dadfa20a,Pierre-Alexandre GAGNAIRE,Fishmarket,,Gagnaire|Barry|Schlichta,North-East Atlantic Ocean,Olhao,,16,Fa,Mercado do Peixe,37.02364,-7.84163,,,,PAG,marine reef biome,,,,,,,,,,,,50000,,,NA,,,,10,NA,,,,,,,ANR-17-CE02-0006-01,,,,,,,,,,,,,,,,,,,,,,,,,,,,,,,,,,,,,,,https://n2t.net/ark:/21547/Dhs20401db202eacb6bd4cbe0f76dadfa20a,CoGeDiv_Genetic_Diversity_Barry_et_al_2021,357
Australia,Moreton Bay,Unknown,04067e2954900699e648b7c5fad0f497,Cynthia Riginos,,,Liggins,,,,,,,-27.19234,153.253332,,,,,,,,,,,,,,,,,,,"""Google Earth, can't be 100% sure of reef location""",,,,,,""" QLD Fisheries: 118636, 150981 """,,Queensland,,,,,,,,,,,,,,,,,,,,,,,,,,,,,,,,,,,,,,,,,,,,https://n2t.net/ark:/21547/BTK204067e2954900699e648b7c5fad0f497,pomcoe_CR_ll,1
East Timor,Dili,2011,04094d73627a51e03e686278d305d28f,Cynthia Riginos,whole specimen,,Liggins,,,,21,,,-8.553838333,125.5049983,,,,,,,,,,,,,4,,,,,,Handheld GPS,,4,,,7,"""Ministufffdrio da Aquicultura e Pescas, Direcufffdufffdo Nacional de Pescas e Aquicultura (authorised by A Fernandes, L Fontes, J Freitas; guia de marssa: 502/DNPA/VIII/10 and 452/DNPA/VII/11). Export of samples was authorised by the Departmento de Quarentena das Pescas (export permit: 162/FQ006/EXP./DNQB/VII/2011)""",photo,Timor Leste,,,,,ARC_DP0878306,,,,,,,,,,,,,,,,,,,,,,,,,,,,,,,,,,,,,,,https://n2t.net/ark:/21547/BSg204094d73627a51e03e686278d305d28f,pomcoe_CO1_ll,1
East Timor,Dili,2011,04094d73627a51e03e686278d305d28f,Cynthia Riginos,whole specimen,,Liggins,,,,21,,,-8.553838333,125.5049983,,,,,,,,,,,,,4,,,,,,Handheld GPS,,4,,,7,"""Ministufffdrio da Aquicultura e Pescas, Direcufffdufffdo Nacional de Pescas e Aquicultura (authorised by A Fernandes, L Fontes, J Freitas; guia de marssa: 502/DNPA/VIII/10 and 452/DNPA/VII/11). Export of samples was authorised by the Departmento de Quarentena das Pescas (export permit: 162/FQ006/EXP./DNQB/VII/2011)""",photo,Timor Leste,,,,,ARC_DP0878306,,,,,,,,,,,,,,,,,,,,,,,,,,,,,,,,,,,,,,,https://n2t.net/ark:/21547/BTK204094d73627a51e03e686278d305d28f,pomcoe_CR_ll,1
Indonesia,"""Sebayur Island, Flores""",2005,040a3972507bb2df5885d0c0a08d341f,Paul Barber,small clip of mantle taken with scissors,,,,,,18,,,-8.507283136,119.71115,,,,,Coral Reef,,,,,,,,,,,,500,,GPS,,,,,7,LIPI 1187/SU/KS/2006 and 04239/SU.3/2006,,,,,,,,,,,,,,,,,,,,,,,,,,,,,,,,,,,,,,,,,,,,,,https://n2t.net/ark:/21547/BXE2040a3972507bb2df5885d0c0a08d341f,trispp_COI_all,1
Indonesia,Derawan,1998,04148a4aea3bcb00d30bb6ce29bd7960,Paul Barber,,,,,,,,,,2.2845,118.240747,,,,,,,,Derawan,,,,,,,,,2000,,Approximated from Google Maps,,,,,,LIPI 1187/SU/KS/2006 and 04239/SU.3/KS/2126,,East Kalimantan,,,,,,,,,,,,,,,,,,,,,,,,,,,,,,,,,,,,,,,,,,,,https://n2t.net/ark:/21547/BVE204148a4aea3bcb00d30bb6ce29bd7960,Sialae_COI_PB,1
Indonesia,Wayag,2006,04208ca2a4a13c7702fe1b910d42eb80,Paul Barber,,,,,,,,,,0.164229,130.037189,,,,,,,,Pulau Wayag (Wajag),,,,,,,,,6000,,Approximated from Google Maps,,,,,,LIPI 1187/SU/KS/2006 and 04239/SU.3/KS/2100,,West Papua,,,,,,,,,,,,,,,,,,,,,,,,,,,,,,,,,,,,,,,,,,,,https://n2t.net/ark:/21547/BNg204208ca2a4a13c7702fe1b910d42eb80,Hopsai_COI_PB,1
Indonesia,Nudi Retreat,2005,04266fb34eac244cf778979597731fb5,Paul Barber,Small ~2cm clip of arm taken with shears. Tube feet extracted.,,Eric Crandall,,,,7,,,1.483349929,125.2401333,,,,,,,,Sulawesi,,,,,20,,,,500,,GPS,,0,,,4,LIPI 1187/SU/KS/2006 and 04239/SU.3/KS/2006,,,,,,,NSF OCE-0349177; NSF DEB-0338806,,,,,,,,,,,,,,,,,,,,,,,,,,,,,,,,,,,,,,,https://n2t.net/ark:/21547/BPd204266fb34eac244cf778979597731fb5,linlae_COI_EC,1
Indonesia,Murex Resort,2005,043249ce81658259be12ff9bbdcbf2ea,Paul Barber,Small ~2cm clip of arm taken with shears. Tube feet extracted.,,Eric Crandall,,,,4,,,1.4572,124.76225,,,,,,,,Sulawesi,,,,,20,,,,500,,GPS,,0,,,4,LIPI 1187/SU/KS/2006 and 04239/SU.3/KS/2006,,,,,,,NSF OCE-0349177; NSF DEB-0338864,,,,,,,,,,,,,,,,,,,,,,,,,,,,,,,,,,,,,,,https://n2t.net/ark:/21547/BPd2043249ce81658259be12ff9bbdcbf2ea,linlae_COI_EC,1
Indonesia,Sorong,2004,0443032d596b0721fb5367cd3d2f2457,Paul Barber,Small ~2cm clip of arm taken with shears. Tube feet extracted.,,Eric Crandall,,,,,,,-0.835583333,130.9654,,,,,,,,Papua,,,,,20,,,,10000,,Google Earth,,0,,,,LIPI 1187/SU/KS/2006 and 04239/SU.3/KS/2006,,,,,,,NSF OCE-0349177; NSF DEB-0339124,,,,,,,,,,,,,,,,,,,,,,,,,,,,,,,,,,,,,,,https://n2t.net/ark:/21547/BPd20443032d596b0721fb5367cd3d2f2457,linlae_COI_EC,1
Indonesia,Station 8,1999,0443090c74ca8817c93059bc97e5a465,Paul Barber,,,,,,,,,,-1.225896,129.752309,,,,,,,,Kofiau,,,,,,,,,30000,,Approximated from Google Maps,,,,,,LIPI 1187/SU/KS/2006 and 04239/SU.3/KS/2187,,West Papua,,,,,,,,,,,,,,,,,,,,,,,,,,,,,,,,,,,,,,,,,,,,https://n2t.net/ark:/21547/BVE20443090c74ca8817c93059bc97e5a465,Sialae_COI_PB,1
New Zealand,Kermadec Islands,2011,0454972df7b2e09d159b8ef4143f9651,Cynthia Riginos,tissue sample,,"""Auckland Museum Expedition (Tom Trnski, Clinton Duffy)""",,,,20,,,-29.25,-177.88,,,,,,,,,,,,,30,,,,,,Google Earth,,6,,,5,"""Auckland Museum permit, permit authority: Dr. Tom Trnski; Department of Conservation, New Zealand""",,North East,,,,,"""ARC_DP0878306, Auckland Museum, Pew Environment Group""",,,,,,,,,,,,,,,,,,,,,,,,,,,,,,,,,,,,,,,https://n2t.net/ark:/21547/BEE20454972df7b2e09d159b8ef4143f9651,acapla_CO1_all,1
Indonesia,"""Gangga, Sulawesi""",2004,045657c00f8211e9c5e19a865710c0ec,Paul Barber,"""Picked off of host, whole animal preserved in 95% etoh""",,Eric Crandall,,,,3,,,1.782036111,125.0280139,,,,,Coral Reef,,,,,,,,20,,,,3000,,Google Earth,,0,,,1,LIPI 1187/SU/KS/2006 and 04239/SU.3/KS/2006,,,,,,,NSF OCE-0349177; NSF DEB-0338566,,,,,,,,,,,,,,,,,,,,,,,,,,,,,,,,,,,,,,,https://n2t.net/ark:/21547/BWH2045657c00f8211e9c5e19a865710c0ec,thycry_CO1_EC,1
Indonesia,Sebesi,2005,0487f784041122822072c3e732e1fcea,Paul Barber,Small ~2cm clip of arm taken with shears. Tube feet extracted.,,Eric Crandall,,,,26,,,-5.930033331,105.51545,,,,,,,,Sebesi,Krakatau,,,,20,,,,500,,GPS,,0,,,3,LIPI 1187/SU/KS/2006 and 04239/SU.3/KS/2006,,,,,,,NSF OCE-0349177; NSF DEB-0338719,,,,,,,,,,,,,,,,,,,,,,,,,,,,,,,,,,,,,,,https://n2t.net/ark:/21547/BPd20487f784041122822072c3e732e1fcea,linlae_COI_EC,1
Marshall Islands,Majuro,2008,0489d200d3cd7edd31e3e002c9cbec7a,Luiz Rocha,,,,,,,,,,7.098,171.378,,,,,marine coral reef biome,,,Majuro,,,,,,,,,,,Google Earth,,,,,8,Bowen permit archive,,NA,,,,,"National Science Foundation OIA0554657, OCE-0453167, and OCE-0623729",,,,,,,,,,,,,,,,,,,,,,,,,,,,,,,,,,,,,,,https://n2t.net/ark:/21547/BYH20489d200d3cd7edd31e3e002c9cbec7a,Acanthurus_olivaceus_MGaither,1
Marshall Islands,Majuro,2008,0489d200d3cd7edd31e3e002c9cbec7a,Luiz Rocha,,,,,,,,,,7.098,171.378,,,,,marine coral reef biome,,,Majuro,,,,,,,,,,,Google Earth,,,,,8,Bowen permit archive,,NA,,,,,"National Science Foundation OIA0554657, OCE-0453167, and OCE-0623729",,,,,,,,,,,,,,,,,,,,,,,,,,,,,,,,,,,,,,,https://n2t.net/ark:/21547/BYL20489d200d3cd7edd31e3e002c9cbec7a,Acanthurus_olivaceus_Michelle_Gaither,1
Portugal,Algarve,2018,04d82271e3722afb71908a9dc5b716df,Pierre-Alexandre GAGNAIRE,Fishing net,,Pilo,North-East Atlantic Ocean,Quarteira,,16,Fa,Collected by IPMA,37.06871,-8.10937,,,,PAG,marine reef biome,,,,,,,,,,,,10000,,,NA,,,,10,NA,,,,,,,ANR-17-CE02-0006-01,,,,,,,,,,,,,,,,,,,,,,,,,,,,,,,,,,,,,,,https://n2t.net/ark:/21547/Dhs204d82271e3722afb71908a9dc5b716df,CoGeDiv_Genetic_Diversity_Barry_et_al_2021,357
Indonesia,Gili Trawangan,2006,04ebf7d9bd219d3739fc9aea6b4be1d6,Paul Barber,,,,,,,,,,-8.357883,116.041636,,,,,,,,Gili Trawangan,,,,,,,,,2000,,Approximated from Google Maps,,,,,,LIPI 1187/SU/KS/2006 and 04239/SU.3/KS/2097,,West Nusa Tenggara,,,,,,,,,,,,,,,,,,,,,,,,,,,,,,,,,,,,,,,,,,,,https://n2t.net/ark:/21547/BNg204ebf7d9bd219d3739fc9aea6b4be1d6,Hopsai_COI_PB,1
Indonesia,Derawan,1998,04f7ce950a385aad37baa5c99ddaca12,Paul Barber,,,,,,,,,,2.2845,118.240747,,,,,,,,Derawan,,,,,,,,,2000,,Approximated from Google Maps,,,,,,LIPI 1187/SU/KS/2006 and 04239/SU.3/KS/2127,,East Kalimantan,,,,,,,,,,,,,,,,,,,,,,,,,,,,,,,,,,,,,,,,,,,,https://n2t.net/ark:/21547/BVE204f7ce950a385aad37baa5c99ddaca12,Sialae_COI_PB,1
Indonesia,Tanjung Pisok,2005,052cecfbff52d4483d0b61335b1ed2ba,Paul Barber,Small ~2cm clip of arm taken with shears. Tube feet extracted.,,Eric Crandall,,,,5,,,1.573816667,124.8028333,,,,,,,,Sulawesi,,,,,20,,,,500,,GPS,,0,,,4,LIPI 1187/SU/KS/2006 and 04239/SU.3/KS/2006,,,,,,,NSF OCE-0349177; NSF DEB-0338829,,,,,,,,,,,,,,,,,,,,,,,,,,,,,,,,,,,,,,,https://n2t.net/ark:/21547/BPd2052cecfbff52d4483d0b61335b1ed2ba,linlae_COI_EC,1
Indonesia,Malalayan,2010,0533b71180216cfc1e1e51d4ff30d16f,Kazuo Nadaoka,tube feet wre taken with tweezers,,Coralie Taquet,,,,,,,1.70405,124.8548889,,,,,Coral Reef,,,,,,,,,,,,5000,,Google Maps,,,,,2,AllPermitInfoAvailable in working files Coralie TAQUET-folderInNadaokaLab,,,,,,,"the Global Environment Research Fund (D-0802) of the Ministry of the Environment, Grant-in-Aid-for Research Fellows (No. 2002526) of JSPS (The Japan Society for the Promotion of Science)",,,,,,,,,,,,,,,,,,,,,,,,,,,,,,,,,,,,,,,https://n2t.net/ark:/21547/BJN20533b71180216cfc1e1e51d4ff30d16f,culnov_CO1_ec,1
Saudi Arabia,Yanbu,2014,053ac096931308e06018089712980c9a,Michael Berumen,,,,,,,,,,23.77253333,38.27611667,,,,,,,,,,,,,,,,,,,GPS,,,,,,SaudiFishandWildlife,,,,,,,,,,,,,,,,,,,,,,,,,,,,,,,,,,,,,,,,,,,,,,https://n2t.net/ark:/21547/BER2053ac096931308e06018089712980c9a,acasoh_CO1_JD,1
Indonesia,Jefman Island,2005,054ff22f2fc1a0f6dccc404ab6fb1b5d,Paul Barber,,,,,,,,,,-0.923119,131.123333,,,,,,,,Jefman (Yef Man) Island,,,,,,,,,2000,,Approximated from Google Maps,,,,,,LIPI 1187/SU/KS/2006 and 04239/SU.3/KS/2042,,West Papua,,,,,,,,,,,,,,,,,,,,,,,,,,,,,,,,,,,,,,,,,,,,https://n2t.net/ark:/21547/BNg2054ff22f2fc1a0f6dccc404ab6fb1b5d,Hopsai_COI_PB,1
Indonesia,Adoki,2005,055c75bb5fcf2629cecdac24e64be817,Paul Barber,,,,,,,,,,-1.14217,135.994667,,,,,,,,Pulau Biak,,,,,,,,,2000,,Approximated from Google Maps,,,,,,LIPI 1187/SU/KS/2006 and 04239/SU.3/KS/2035,,Papua,,,,,,,,,,,,,,,,,,,,,,,,,,,,,,,,,,,,,,,,,,,,https://n2t.net/ark:/21547/BVE2055c75bb5fcf2629cecdac24e64be817,Sialae_COI_PB,1
USA,Eastern Tropical Pacific,1993,056e81751f964cef6dbc5b67f4357e94,Kimberly Andrews,,,,,,,,,,11.45,-128,,,,,,,,,,,,,,,,,,,GPS,,,,,,"""NMFS permits, state permits, & CITES permits""",,,,,,,,,,,,,,,,,,,,,,,,,,,,,,,,,,,,,,,,,,,,,,https://n2t.net/ark:/21547/BVj2056e81751f964cef6dbc5b67f4357e94,stelon_CR_ka,1
Indonesia,Indonesia,2008,0573b4c27137a99da8669af20f80ddd2,Kimberly Andrews,,,,,,,,,,2.267,118.3,,,,,,,,,,,,,,,,,,,GPS,,,,,,"""NMFS permits, state permits, & CITES permits""",,,,,,,,,,,,,,,,,,,,,,,,,,,,,,,,,,,,,,,,,,,,,,https://n2t.net/ark:/21547/BVj20573b4c27137a99da8669af20f80ddd2,stelon_CR_ka,1
Indonesia,Indonesia,2008,0573b4c27137a99da8669af20f80ddd2,Kimberly Andrews,,,,,,,,,,2.267,118.3,,,,,,,,,,,,,,,,,,,GPS,,,,,,"""NMFS permits, state permits, & CITES permits""",,,,,,,,,,,,,,,,,,,,,,,,,,,,,,,,,,,,,,,,,,,,,,https://n2t.net/ark:/21547/BVp20573b4c27137a99da8669af20f80ddd2,stelon_CyB_ka,1
Indonesia,Kararorika,2005,05928b8b1a0ffb7542937bf9ef98a5ab,Paul Barber,Small ~2cm clip of arm taken with shears. Tube feet extracted.,,Eric Crandall,,,,28,,,2.103916675,127.7863833,,,,,,,,Halmahera,,,,,20,,,,500,,GPS,,0,,,5,LIPI 1187/SU/KS/2006 and 04239/SU.3/KS/2006,,,,,,,NSF OCE-0349177; NSF DEB-0338942,,,,,,,,,,,,,,,,,,,,,,,,,,,,,,,,,,,,,,,https://n2t.net/ark:/21547/BPd205928b8b1a0ffb7542937bf9ef98a5ab,linlae_COI_EC,1
Indonesia,"Alyui Bay, Raja Ampat",2005,05a4b85ce66f51bf8d74b940f162bea2,Paul Barber,"Picked off of host, whole animal preserved in 95% etoh",,Eric Crandall,,,,5,,,-0.174566667,130.2475667,,,,,,,,,,,,,20,,,,500,,GPS,,0,,,7,LIPI 1187/SU/KS/2006 and 04239/SU.3/,,,,,,,"""NSF OCE-0349177; NSF DEB-0338566""",,,,,,,,,,,,,,,,,,,,,,,,,,,,,,,,,,,,,,,https://n2t.net/ark:/21547/BSN205a4b85ce66f51bf8d74b940f162bea2,persor_CO1_EC,1
Indonesia,Anyer Fish Market,Unknown,05c33327678caccb082fd29f55c19bab,Paul Barber,,,,,,,,,,-6.084669,105.883999,,,,,Coral Reef,,,,,,,,20,,,,50000,,Google Maps,,0,,,,LIPI 1187/SU/KS/2006 and 04239/SU.3/KS/2006,,,,,,,NSF OCE-0349177; NSF DEB-0338566,,,,,,,,,,,,,,,,,,,,,,,,,,,,,,,,,,,,,,,https://n2t.net/ark:/21547/BFa205c33327678caccb082fd29f55c19bab,caecun_CR_PB,1
,"""Coconut Island, Oahu, Hawaii""",2005,05d2c88a52caf517247b6fc9357f5a0d,Brian Bowen,,,,,,,,,,21.433941,-157.788042,,,,,,,,,,,,,,,,,1000,,Based on locality name search in Google Maps,,,,,,HIMB,,,,,,,,,,,,,,,,,,,,,,,,,,,,,,,,,,,,,,,,,,,,,,https://n2t.net/ark:/21547/BVR205d2c88a52caf517247b6fc9357f5a0d,Sphbar_CyB_TDE,1
Indonesia,Tanjung Jerewai,2005,05da2e360ba608bf58a9ef1c56ca6172,Paul Barber,Small ~2cm clip of arm taken with shears. Tube feet extracted.,,Eric Crandall,,,,30,,,1.520216667,128.7004,,,,,,,,Halmahera,,,,,20,,,,500,,GPS,,0,,,5,LIPI 1187/SU/KS/2006 and 04239/SU.3/KS/2006,,,,,,,NSF OCE-0349177; NSF DEB-0338995,,,,,,,,,,,,,,,,,,,,,,,,,,,,,,,,,,,,,,,https://n2t.net/ark:/21547/BPd205da2e360ba608bf58a9ef1c56ca6172,linlae_COI_EC,1
Fiji,"""Naselesele, Taveuni, Fiji""",2006,0608048953eb987041061b5563e49e99,Paul Barber,Small ~2cm clip of arm taken with shears. Tube feet extracted.,,Joshua Drew,,,,,,,-16.69273611,-179.8609139,,,,,,,,Taveuni,,,,,20,,,,5000,,Google Earth,,0,,,,"""Permit to EC and JD from Ministry of Fisheries and Forests, Export permit Permit C300/3019""",,,,,,,NSF OCE-0349177; NSF DEB-0338619,,,,,,,,,,,,,,,,,,,,,,,,,,,,,,,,,,,,,,,https://n2t.net/ark:/21547/BPd20608048953eb987041061b5563e49e99,linlae_COI_EC,1
Indonesia,Anak Krakatau,2005,060d8080bd82fe0eeedbc37bc53584a1,Paul Barber,Small ~2cm clip of arm taken with shears. Tube feet extracted.,,Eric Crandall,,,,24,,,-6.090416667,105.41825,,,,,,,,Anak Krakatau,Krakatau,,,,20,,,,500,,GPS,,0,,,3,LIPI 1187/SU/KS/2006 and 04239/SU.3/KS/2006,,,,,,,NSF OCE-0349177; NSF DEB-0338674,,,,,,,,,,,,,,,,,,,,,,,,,,,,,,,,,,,,,,,https://n2t.net/ark:/21547/BPd2060d8080bd82fe0eeedbc37bc53584a1,linlae_COI_EC,1
Indonesia,West Tip of Serui,2005,0621d82ca430e65c3fa2df6516728efc,Paul Barber,Small ~2cm clip of arm taken with shears. Tube feet extracted.,,Eric Crandall,,,,6,,,-1.905283366,136.2275333,,,,,,,,Yapen,,,,,20,,,,500,,GPS,,0,,,4,LIPI 1187/SU/KS/2006 and 04239/SU.3/KS/2006,,,,,,,NSF OCE-0349177; NSF DEB-0338919,,,,,,,,,,,,,,,,,,,,,,,,,,,,,,,,,,,,,,,https://n2t.net/ark:/21547/BPd20621d82ca430e65c3fa2df6516728efc,linlae_COI_EC,1
Indonesia,Tanjung Pisok,1999,064f9d98d82323aee51ea693399418f5,Paul Barber,,,,,,,,,,1.567966,124.803276,,,,,,,,Sulawesi,,,,,,,,,500,,Approximated from Google Maps,,,,,,LIPI 1187/SU/KS/2006 and 04239/SU.3/KS/2101,,North Sulawesi,,,,,,,,,,,,,,,,,,,,,,,,,,,,,,,,,,,,,,,,,,,,https://n2t.net/ark:/21547/BMj2064f9d98d82323aee51ea693399418f5,hapham_COI_PB,1
American Samoa,Amouli Beach,2042,06613008b428629d83dce13fd030486d,Paul Barber,"Obstruct operculum from closing, place in 95% EtOH",,Eric Crandall,,,,,,,-14.27374,-170.58225,,,,,Intertidal,,,,,,,,2,2,,,500,,GPS,,,,,,Permit to EC from DMWR - 2006/03,,,,,,,"""DEB-0508788; DEB-0338566; OCE 0349177; IBN-0416713; OCE-06_23699; Lerner-Grey Fund; Conchologists of America""",,,,,,,,,,,,,,,,,,,,,,,,,,,,,,,,,,,,,,,https://n2t.net/ark:/21547/BRX206613008b428629d83dce13fd030486d,neralb_CO1_EC,1
USA,Eastern Tropical Pacific,1994,0665cc478aaa8c9da5a55cbcdeccec39,Kimberly Andrews,,,,,,,,,,-9.02,-90.12,,,,,,,,,,,,,,,,,,,GPS,,,,,,"""NMFS permits, state permits, & CITES permits""",,,,,,,,,,,,,,,,,,,,,,,,,,,,,,,,,,,,,,,,,,,,,,https://n2t.net/ark:/21547/BVj20665cc478aaa8c9da5a55cbcdeccec39,stelon_CR_ka,1
USA,Eastern Tropical Pacific,1994,0665cc478aaa8c9da5a55cbcdeccec39,Kimberly Andrews,,,,,,,,,,-9.02,-90.12,,,,,,,,,,,,,,,,,,,GPS,,,,,,"""NMFS permits, state permits, & CITES permits""",,,,,,,,,,,,,,,,,,,,,,,,,,,,,,,,,,,,,,,,,,,,,,https://n2t.net/ark:/21547/BVp20665cc478aaa8c9da5a55cbcdeccec39,stelon_CyB_ka,1
Indonesia,Halmahera,2005,06b97330940ecd706165dcdab51d06b4,Paul Barber,,,,,,,,,,0.730142,128.449745,,,,,,,,Kararorika Island,,,,,,,,,500000,,Approximated from Google Maps,,,,,,LIPI 1187/SU/KS/2006 and 04239/SU.3/KS/2076,,North Maluku,,,,,,,,,,,,,,,,,,,,,,,,,,,,,,,,,,,,,,,,,,,,https://n2t.net/ark:/21547/BVE206b97330940ecd706165dcdab51d06b4,Sialae_COI_PB,1
Australia,Christmas_Island,2007,06c639c23f2ec80a2da76d7860c18bcc,Brian Bowen,,,,,,,,,,-10.414841,105.683062,,,,,,,,Christmas_Island,,,,,,,,,100,,Google_Earth,,,,,,unknown,,,,,,,,hybrid with Acanthurus nigricans based on intermediate coloration,,,,,,,,,,,,,,,,,,,,,,,,,,,,,,,,,,,,,,https://n2t.net/ark:/21547/Bak206c639c23f2ec80a2da76d7860c18bcc,test,1
USA,Eastern Tropical Pacific,1984,06c9be848a8c8636517f376eff6761d3,Kimberly Andrews,,,,,,,,,,12.47,-130.47,,,,,,,,,,,,,,,,,,,GPS,,,,,,"""NMFS permits, state permits, & CITES permits""",,,,,,,,,,,,,,,,,,,,,,,,,,,,,,,,,,,,,,,,,,,,,,https://n2t.net/ark:/21547/BVj206c9be848a8c8636517f376eff6761d3,stelon_CR_ka,1
USA,Eastern Tropical Pacific,1984,06c9be848a8c8636517f376eff6761d3,Kimberly Andrews,,,,,,,,,,12.47,-130.47,,,,,,,,,,,,,,,,,,,GPS,,,,,,"""NMFS permits, state permits, & CITES permits""",,,,,,,,,,,,,,,,,,,,,,,,,,,,,,,,,,,,,,,,,,,,,,https://n2t.net/ark:/21547/BVp206c9be848a8c8636517f376eff6761d3,stelon_CyB_ka,1
Indonesia,Tridacna Atoll,2005,06cd9e3da11d9b52a47e7ab928a45029,Paul Barber,Small ~2cm clip of arm taken with shears. Tube feet extracted.,,Eric Crandall,,,,10,,,-2.494850002,134.9832833,,,,,,,,Tridacna Atoll,,,,,20,,,,500,,GPS,,0,,,9,LIPI 1187/SU/KS/2006 and 04239/SU.3/KS/2006,,,,,,,NSF OCE-0349177; NSF DEB-0339062,,,,,,,,,,,,,,,,,,,,,,,,,,,,,,,,,,,,,,,https://n2t.net/ark:/21547/BPd206cd9e3da11d9b52a47e7ab928a45029,linlae_COI_EC,1
USA,Eastern Tropical Pacific,1984,06d0a8f1f0b83becb12aa3aa49eaede3,Kimberly Andrews,,,,,,,,,,13.5,-124.03,,,,,,,,,,,,,,,,,,,GPS,,,,,,"""NMFS permits, state permits, & CITES permits""",,,,,,,,,,,,,,,,,,,,,,,,,,,,,,,,,,,,,,,,,,,,,,https://n2t.net/ark:/21547/BVj206d0a8f1f0b83becb12aa3aa49eaede3,stelon_CR_ka,1
USA,Eastern Tropical Pacific,1984,06d0a8f1f0b83becb12aa3aa49eaede3,Kimberly Andrews,,,,,,,,,,13.5,-124.03,,,,,,,,,,,,,,,,,,,GPS,,,,,,"""NMFS permits, state permits, & CITES permits""",,,,,,,,,,,,,,,,,,,,,,,,,,,,,,,,,,,,,,,,,,,,,,https://n2t.net/ark:/21547/BVp206d0a8f1f0b83becb12aa3aa49eaede3,stelon_CyB_ka,1
Indonesia,"""Kri/Mansuar/N.Dampier Strait, Raja Ampat""",Unknown,06d324bffecc14dd4b40de5fce042278,Paul Barber,"""Obstruct operculum from closing, place in 95% EtOH""",,Eric Crandall,,,,,,,-0.5564,130.6780139,,,,,Intertidal,,,,,,,,1,4,,,500,,GPS,,,,,,LIPI 1187/SU/KS/2006 and 04239/SU.3/KS/2061,,,,,,,DEB-0508788; DEB-0338566; OCE 0349177; IBN-0416713; OCE-06_23699; Lerner-Grey Fund; Conchologists of America,,,,,,,,,,,,,,,,,,,,,,,,,,,,,,,,,,,,,,,https://n2t.net/ark:/21547/BRd206d324bffecc14dd4b40de5fce042278,nerpli_CO1_EC,1
Indonesia,"""Lahewa, Nias""",2005,06df3616cd01abae2ac0bb38f8467f23,Paul Barber,,,Benita Chick,,,,,,,1.414603389,97.15330354,,,,,Seagrass,,,,,,,,20,,,,500,,GPS,,0,,,,"""LIPI 1187/SU/KS/2006 and 04239/SU.3/KS/2006""",,,,,,,NSF DEB-0338566,,,,,,,,,,,,,,,,,,,,,,,,,,,,,,,,,,,,,,,https://n2t.net/ark:/21547/BNH206df3616cd01abae2ac0bb38f8467f23,holatr_CO1_bc,1
Australia,Lihou Reef,2008,06f43184ae438cb5a352a7c4ac15b260,Cynthia Riginos,tissue,,Treml,,,,13,,,-17.133,151.82024,,,,,,,,,,,,,5,,,,,,GPS,,5,,,12,AU-COM2008042; Australian Government,,Coral Sea,,,,,ARC_DP0878306,,,,,,,,,,,,,,,,,,,,,,,,,,,,,,,,,,,,,,,https://n2t.net/ark:/21547/BLg206f43184ae438cb5a352a7c4ac15b260,halhor_CR_ll,1
Indonesia,"Anyer Fish Market, Anyer, Krakatau",2005,06f5a2e88658b64aba49ec38dd7cf346,P. H. Barber,,,,,,,,,,-6.120368,105.415856,,,,,,,,,,,,,,,,,20000,,approximated from Google Maps,,,,,,"1187/SU/KS/2006, 04239/ SU.3/KS/2033",,,,,,,,,,,,,,,,,,,,,,,,,,,,,,,,,,,,,,,,,,,,,,https://n2t.net/ark:/21547/EAZ206f5a2e88658b64aba49ec38dd7cf346,ctPIRE-Ccun-mtDNA,453
Yemen,Socotra,2013,06f768e88d7cf0efb287b1508f49dd91,Joseph DiBattista,,,,,,,,,,12.67033333,54.17801667,,,,,,,,Socotra,,,,,,,,,,,GPS,,,,,,MinistryofWaterandEnvironmentofYemen,,,,,,,,,,,,,,,,,,,,,,,,,,,,,,,,,,,,,,,,,,,,,,https://n2t.net/ark:/21547/BHm206f768e88d7cf0efb287b1508f49dd91,chamel_CO1_JD,1
Yemen,Socotra,2013,06f768e88d7cf0efb287b1508f49dd91,Joseph DiBattista,,,,,,,,,,12.67033333,54.17801667,,,,,,,,Socotra,,,,,,,,,,,GPS,,,,,,MinistryofWaterandEnvironmentofYemen,,,,,,,,,,,,,,,,,,,,,,,,,,,,,,,,,,,,,,,,,,,,,,https://n2t.net/ark:/21547/BIR206f768e88d7cf0efb287b1508f49dd91,chatri_CO1_JD,1
Indonesia,Pramuka,2005,0726da9775339f2383689c3ead251cc4,Paul Barber,Small ~2cm clip of arm taken with shears. Tube feet extracted.,,Eric Crandall,,,,29,,,-5.746116667,106.5918833,,,,,,,,Pramuka,Pulau_Seribu,,,,20,,,,500,,GPS,,0,,,3,LIPI 1187/SU/KS/2006 and 04239/SU.3/KS/2006,,,,,,,NSF OCE-0349177; NSF DEB-0338756,,,,,,,,,,,,,,,,,,,,,,,,,,,,,,,,,,,,,,,https://n2t.net/ark:/21547/BPd20726da9775339f2383689c3ead251cc4,linlae_COI_EC,1
Indonesia,Tanjung Pisok,2005,073726186b20100d5aa061942fa6642c,Paul Barber,Small ~2cm clip of arm taken with shears. Tube feet extracted.,,Eric Crandall,,,,5,,,1.573816667,124.8028333,,,,,,,,Sulawesi,,,,,20,,,,500,,GPS,,0,,,4,LIPI 1187/SU/KS/2006 and 04239/SU.3/KS/2006,,,,,,,NSF OCE-0349177; NSF DEB-0338826,,,,,,,,,,,,,,,,,,,,,,,,,,,,,,,,,,,,,,,https://n2t.net/ark:/21547/BPd2073726186b20100d5aa061942fa6642c,linlae_COI_EC,1
USA,French Frigate Shoals,2009,0739b7e5934fcce6cf093bc49ae2aebf,Matthew Iacchei,small piece of antenna or leg is broken off,,Matt Iacchei,,,,12,,,23.86448333,-166.1997,,,,,coral reef,,,French Frigate Shoals,Hawaiian Archipelago,,,,10,,,,,,GPS,small cave; overhang; puka or hole in the rock,3,,,6,PMNM-2009-032L,,Hawaii,,,,,,,,,,,,,,,,,,,,,,,,,,,,,,,,,,,,,,,,,,,,https://n2t.net/ark:/21547/BRv20739b7e5934fcce6cf093bc49ae2aebf,Panpen_COI_MI,1
Indonesia,"""pelabuhan ratu bay, indonesia""",Unknown,0758c6c957f97bc5b0a79eb9a69fcc76,Kate Sanders,,,Kate Sanders,,,,,,,-7.0342633,106.4170311,,,,,,,,Java,Greater Sundas,,,,,,,,33150,,Geocoded in Google Maps,,,,,,"""LIPI (Indonesian Institute of Sciences) permit numbers 0068/FRP/SM/IV/2009 and 4859/SU/KS/2005, issued to Kate Sanders.""",,West Java,,,,,ARC DP0987620,,,,,,,,,,,,,,,,,,,,,,,,,,,,,,,,,,,,,,,https://n2t.net/ark:/21547/BNm20758c6c957f97bc5b0a79eb9a69fcc76,hydrospp_CYB_ks,1
Indonesia,Karang Serang,2005,0768ce1554c73595387b6cb182129350,Paul Barber,"Picked off of host, whole animal preserved in 95% etoh",,Eric Crandall,,,,25,,,-6.109466667,105.4398833,,,,,,,,,,,,,20,,,,500,,GPS,,0,,,3,LIPI 1187/SU/KS/2006 and 04239/SU.3/,,,,,,,"""NSF OCE-0349177; NSF DEB-0338566""",,,,,,,,,,,,,,,,,,,,,,,,,,,,,,,,,,,,,,,https://n2t.net/ark:/21547/BSN20768ce1554c73595387b6cb182129350,persor_CO1_EC,1
Indonesia,Yapen-Serui Fish Market,Unknown,0775b13632cfdec6ed25c275affd5548,Paul Barber,,,,,,,,,,-1.878015,136.236664,,,,,Coral Reef,,,,,,,,20,,,,50000,,Google Earth,,0,,,,LIPI 1187/SU/KS/2006 and 04239/SU.3/KS/2006,,,,,,,NSF OCE-0349177; NSF DEB-0338566,,,,,,,,,,,,,,,,,,,,,,,,,,,,,,,,,,,,,,,https://n2t.net/ark:/21547/BDH20775b13632cfdec6ed25c275affd5548,acalin_CR_PB,1
Indonesia,Yapen-Serui Fish Market,Unknown,0775b13632cfdec6ed25c275affd5548,Paul Barber,,,,,,,,,,-1.878015,136.236664,,,,,Coral Reef,,,,,,,,20,,,,50000,,Google Earth,,0,,,,LIPI 1187/SU/KS/2006 and 04239/SU.3/KS/2006,,,,,,,NSF OCE-0349177; NSF DEB-0338566,,,,,,,,,,,,,,,,,,,,,,,,,,,,,,,,,,,,,,,https://n2t.net/ark:/21547/BJB20775b13632cfdec6ed25c275affd5548,ctestr_CR_PB,1
Philippines,"""Victory, Santiago Is., Bolinao""",2008,079a0f2b7b0c0c57cd2eb654466e7cd7,Marie Antonette Menez,,,,,,,11,,,16.39,119.97,,,,,Seagrass,,,,,,,,,,,,10000,,,,,,,11,"""Collected under gratuitous permit from BFAR to ODU and UPMSI, amended October 2, 2008""",,Pangasinan,,,,,CT-PIRE: OISE-0730256; DOST-ASTHRDP,,,,,,,,,,,,,,,,,,,,,,,,,,,,,,,,,,,,,,,https://n2t.net/ark:/21547/BWg2079a0f2b7b0c0c57cd2eb654466e7cd7,Trigra_CO1_ic,1
Australia,Ningaloo Marine Park,2009,07afcb53205050fa21d79d276e38f7f4,Cynthia Riginos,whole,,Treml/Riginos,,,,9,,,-23.0409,113.8202,,,,,,,,,,,,,3.5,,,,,,GPS,,3.5,,,6,"""SF006619/CE002227; WA-DEC""",,Western Australia,,,,,ARC_DP0878306,,,,,,,,,,,,,,,,,,,,,,,,,,,,,,,,,,,,,,,https://n2t.net/ark:/21547/BSa207afcb53205050fa21d79d276e38f7f4,pomcoe_CO1_CR,1
Australia,Ningaloo Marine Park,2009,07afcb53205050fa21d79d276e38f7f4,Cynthia Riginos,whole,,Treml/Riginos,,,,9,,,-23.0409,113.8202,,,,,,,,,,,,,3.5,,,,,,GPS,,3.5,,,6,"""SF006619/CE002227; WA-DEC""",,Western Australia,,,,,ARC_DP0878306,,,,,,,,,,,,,,,,,,,,,,,,,,,,,,,,,,,,,,,https://n2t.net/ark:/21547/BSm207afcb53205050fa21d79d276e38f7f4,pomcoe_CR_CR,1
Indonesia,Waaf,2005,07badd4d220e95377bb8493b3dee251b,Paul Barber,Small ~2cm clip of arm taken with shears. Tube feet extracted.,,Eric Crandall,,,,21,,,-2.125375,130.1307583,,,,,,,,Misool,Raja_Ampat,,,,20,,,,10000,,Google Earth,,0,,,11,LIPI 1187/SU/KS/2006 and 04239/SU.3/KS/2006,,,,,,,NSF OCE-0349177; NSF DEB-0339097,,,,,,,,,,,,,,,,,,,,,,,,,,,,,,,,,,,,,,,https://n2t.net/ark:/21547/BPd207badd4d220e95377bb8493b3dee251b,linlae_COI_EC,1
Indonesia,Murex Resort 2,2005,07c4272e13656d5ae6d58492d05b24a7,Paul Barber,Small ~2cm clip of arm taken with shears. Tube feet extracted.,,Eric Crandall,,,,8,,,1.735866694,125.14915,,,,,,,,Bangka,,,,,20,,,,500,,GPS,,0,,,4,LIPI 1187/SU/KS/2006 and 04239/SU.3/KS/2006,,,,,,,NSF OCE-0349177; NSF DEB-0338881,,,,,,,,,,,,,,,,,,,,,,,,,,,,,,,,,,,,,,,https://n2t.net/ark:/21547/BPd207c4272e13656d5ae6d58492d05b24a7,linlae_COI_EC,1
,Bira,2004,07cb2a986de9f5b04e97b5d077606deb,Marc Kochzius,,,,,,,,,,-5.614711,120.453972,,,,,,,,,,,,,,,,,5000,,Google Earth,,,,,,"""The SPICE project (Science for the protection of indonesian Coastal marine Ecosystems) was conducted and permitted under the governmental agreement between the German Federal Ministry of Education and Research (BMBF) and the Indonesian Ministry for Research and Technology (RISTEK), Indonesian Institute of Sciences (LIPI), Indonesian Ministry of Maritime Affairs and Fisheries (DKP), and Agency for the Assessment and Application of Technology (BPPT). This work was carried out in co-operation with Hassanuddin University (UNHAS, Makassar, Indonesia), Agricultural University Bogor (IPB, Bogor, Indonesia), and Jenderal Soedirman University (Purwokerto, Indonesia).""",,,,,,,,,,,,,,,,,,,,,,,,,,,,,,,,,,,,,,,,,,,,,,https://n2t.net/ark:/21547/BPR207cb2a986de9f5b04e97b5d077606deb,linlae_CO1_mk,1
,Bira,2004,07cb2a986de9f5b04e97b5d077606deb,Marc Kochzius,,,,,,,,,,-5.614711,120.453972,,,,,,,,,,,,,,,,,5000,,Google Earth,,,,,,"""The SPICE project (Science for the protection of indonesian Coastal marine Ecosystems) was conducted and permitted under the governmental agreement between the German Federal Ministry of Education and Research (BMBF) and the Indonesian Ministry for Research and Technology (RISTEK), Indonesian Institute of Sciences (LIPI), Indonesian Ministry of Maritime Affairs and Fisheries (DKP), and Agency for the Assessment and Application of Technology (BPPT). This work was carried out in co-operation with Hassanuddin University (UNHAS, Makassar, Indonesia), Agricultural University Bogor (IPB, Bogor, Indonesia), and Jenderal Soedirman University (Purwokerto, Indonesia).""",,,,,,,,,,,,,,,,,,,,,,,,,,,,,,,,,,,,,,,,,,,,,,https://n2t.net/ark:/21547/BWN207cb2a986de9f5b04e97b5d077606deb,thycry_CO1_mk,1
,Bira,2004,07cb2a986de9f5b04e97b5d077606deb,Marc Kochzius,,,,,,,,,,-5.614711,120.453972,,,,,,,,,,,,,,,,,5000,,Google Earth,,,,,,"""The SPICE project (Science for the protection of indonesian Coastal marine Ecosystems) was conducted and permitted under the governmental agreement between the German Federal Ministry of Education and Research (BMBF) and the Indonesian Ministry for Research and Technology (RISTEK), Indonesian Institute of Sciences (LIPI), Indonesian Ministry of Maritime Affairs and Fisheries (DKP), and Agency for the Assessment and Application of Technology (BPPT). This work was carried out in co-operation with Hassanuddin University (UNHAS, Makassar, Indonesia), Agricultural University Bogor (IPB, Bogor, Indonesia), and Jenderal Soedirman University (Purwokerto, Indonesia).""",,,,,,,,,,,,,,,,,,,,,,,,,,,,,,,,,,,,,,,,,,,,,,https://n2t.net/ark:/21547/BWU207cb2a986de9f5b04e97b5d077606deb,tricos_CO1_mk,1
,Bira,2004,07cb2a986de9f5b04e97b5d077606deb,Marc Kochzius,,,,,,,,,,-5.614711,120.453972,,,,,,,,,,,,,,,,,5000,,Google Earth,,,,,,"""The SPICE project (Science for the protection of indonesian Coastal marine Ecosystems) was conducted and permitted under the governmental agreement between the German Federal Ministry of Education and Research (BMBF) and the Indonesian Ministry for Research and Technology (RISTEK), Indonesian Institute of Sciences (LIPI), Indonesian Ministry of Maritime Affairs and Fisheries (DKP), and Agency for the Assessment and Application of Technology (BPPT). This work was carried out in co-operation with Hassanuddin University (UNHAS, Makassar, Indonesia), Agricultural University Bogor (IPB, Bogor, Indonesia), and Jenderal Soedirman University (Purwokerto, Indonesia).""",,,,,,,,,,,,,,,,,,,,,,,,,,,,,,,,,,,,,,,,,,,,,,https://n2t.net/ark:/21547/BWs207cb2a986de9f5b04e97b5d077606deb,trimax_CO1_MK,1
Indonesia,Semak Daun,2005,07d88863a3bc943c144efd94024b4c38,Paul Barber,Small ~2cm clip of arm taken with shears. Tube feet extracted.,,Eric Crandall,,,,30,,,-5.800739709,106.5638889,,,,,,,,Semak Daun,Pulau_Seribu,,,,20,,,,500,,GPS,,0,,,3,LIPI 1187/SU/KS/2006 and 04239/SU.3/KS/2006,,,,,,,NSF OCE-0349177; NSF DEB-0338684,,,,,,,,,,,,,,,,,,,,,,,,,,,,,,,,,,,,,,,https://n2t.net/ark:/21547/BPd207d88863a3bc943c144efd94024b4c38,linlae_COI_EC,1
Indonesia,Tridacna Atoll,2005,07dbde2ebd8fef426de6914b43d9e861,Paul Barber,Small ~2cm clip of arm taken with shears. Tube feet extracted.,,Eric Crandall,,,,10,,,-2.494850002,134.9832833,,,,,,,,Tridacna Atoll,,,,,20,,,,500,,GPS,,0,,,9,LIPI 1187/SU/KS/2006 and 04239/SU.3/KS/2006,,,,,,,NSF OCE-0349177; NSF DEB-0339058,,,,,,,,,,,,,,,,,,,,,,,,,,,,,,,,,,,,,,,https://n2t.net/ark:/21547/BPd207dbde2ebd8fef426de6914b43d9e861,linlae_COI_EC,1
Indonesia,Yapen-Pulau Ambai,Unknown,07dc2af4c6fd6566238df246f7fcf974,Paul Barber,,,,,,,,,,-1.960616724,136.3205333,,,,,Coral Reef,,,,,,,,20,,,,500,,GPS,,0,,,,LIPI 1187/SU/KS/2006 and 04239/SU.3/KS/2006,,,,,,,NSF OCE-0349177; NSF DEB-0338566,,,,,,,,,,,,,,,,,,,,,,,,,,,,,,,,,,,,,,,https://n2t.net/ark:/21547/BEv207dc2af4c6fd6566238df246f7fcf974,ampper_CR_PB,1
Indonesia,"Jimbaran Fish Market, Bali",2010,07f301dc8a26959bcdbba2c9c0a601ad,P. H. Barber,,,,,,,21,,,-8.741076,115.145632,,,,,,,,,,,,,,,,,20000,,approximated from Google Maps,,,,,,0119/FRPSM/VI/2049,,,,,,,,,,,,,,,,,,,,,,,,,,,,,,,,,,,,,,,,,,,,,,https://n2t.net/ark:/21547/EAZ207f301dc8a26959bcdbba2c9c0a601ad,ctPIRE-Ccun-mtDNA,453
Indonesia,Waaf,2005,081106145b3e803a1c37b5948895f787,Paul Barber,Small ~2cm clip of arm taken with shears. Tube feet extracted.,,Eric Crandall,,,,21,,,-2.125375,130.1307583,,,,,,,,Misool,Raja_Ampat,,,,20,,,,10000,,Google Earth,,0,,,11,LIPI 1187/SU/KS/2006 and 04239/SU.3/KS/2006,,,,,,,NSF OCE-0349177; NSF DEB-0339086,,,,,,,,,,,,,,,,,,,,,,,,,,,,,,,,,,,,,,,https://n2t.net/ark:/21547/BPd2081106145b3e803a1c37b5948895f787,linlae_COI_EC,1
Indonesia,Manado Fish Market,2013,0811769b34afb98c7a3d6d8093402467,Samantha Cheng,,,,,,,,,,1.49978,124.841063,,,,,,,,Sulawesi,,,,,,,,,50000,,Approximated from Google Maps and based on boat size of fishers,,,,,,On loan from IBRC,,North Sulawesi,,,,,,,,,,,,,,,,,,,,,,,,,,,,,,,,,,,,,,,,,,,,https://n2t.net/ark:/21547/BUy20811769b34afb98c7a3d6d8093402467,SeplesSPC_COI_PB,1
Indonesia,Gusung,2006,0820e45ddd6c113496f7278a89c71ede,Paul Barber,Small ~2cm clip of arm taken with shears. Tube feet extracted.,,Eric Crandall,,,,27,,,-6.091944444,120.413888,,,,,,,,Selayar,,,,,20,,,,500,,GPS,,0,,,7,LIPI 1187/SU/KS/2006 and 04239/SU.3/KS/2006,,,,,,,NSF OCE-0349177; NSF DEB-0339116,,,,,,,,,,,,,,,,,,,,,,,,,,,,,,,,,,,,,,,https://n2t.net/ark:/21547/BPd20820e45ddd6c113496f7278a89c71ede,linlae_COI_EC,1
Solomon Islands,Nggatokae Island,2010,08271344d63e89a97f557e9576ab3842,Cynthia Riginos,tissue,,Liggins/Keyse,,,,15,,,-8.745172222,158.2163639,,,,,,,,,,,,,2,,,,,,google earth,,2,,,12,The Research Act 1982 (No. 9 of 1982) Research Permit; Solomon Islands Minister for Education and Human Resources Development,no photo,Marovo Lagoon,,,,,"""ARC_DP0878306, The Explorers Club Exploration Fund to Liggins""",,,,,,,,,,,,,,,,,,,,,,,,,,,,,,,,,,,,,,,https://n2t.net/ark:/21547/BWy208271344d63e89a97f557e9576ab3842,trispp_16S_all,1
Solomon Islands,Nggatokae Island,2010,08271344d63e89a97f557e9576ab3842,Cynthia Riginos,tissue,,Liggins/Keyse,,,,15,,,-8.745172222,158.2163639,,,,,,,,,,,,,2,,,,,,google earth,,2,,,12,The Research Act 1982 (No. 9 of 1982) Research Permit; Solomon Islands Minister for Education and Human Resources Development,no photo,Marovo Lagoon,,,,,"""ARC_DP0878306, The Explorers Club Exploration Fund to Liggins""",,,,,,,,,,,,,,,,,,,,,,,,,,,,,,,,,,,,,,,https://n2t.net/ark:/21547/BXE208271344d63e89a97f557e9576ab3842,trispp_COI_all,1
Australia,Lizard Island,2011,0836eea52d8b8a61c5cfe20356ed6c32,Riginos,tissue,,Liggins,,,,2,,,-14.70095278,145.4510861,,,,,,,,,,,,,3,,,,,,Google Earth,,3,,,6,G10/33597.1 & 118636; GBRMPA & QLD Fisheries,no photo,Great Barrier Reef,,,,,"ARC_DP0878306, The Great Barrier Reef Marine Park Authority's Science for Management Award to Liggins, Ecological Society of Australia Student Research Grant to Liggins",,,,,,,,,,,,,,,,,,,,,,,,,,,,,,,,,,,,,,,https://n2t.net/ark:/21547/BYk20836eea52d8b8a61c5cfe20356ed6c32,Tridacnaspecies_variouslocations_COI,1
Djibouti,Bay_de_Ghoubett,2012,083af256f5442955c55f6c4cb1434473,Joseph_DiBattista,,,,,,,,,,11.52666667,42.65833333,,,,,,,,,,,,,,,,,10,,GPS,,,,,,na,,,,,,,,,,,,,,,,,,,,,,,,,,,,,,,,,,,,,,,,,,,,,,https://n2t.net/ark:/21547/BXr2083af256f5442955c55f6c4cb1434473,Reeffish_ArabianSea_mtDNA,1
Indonesia,West tip of Serui,2005,085a1d016870b9b97dc10f9c50557321,Paul Barber,,,,,,,,,,-1.904197,136.223221,,,,,,,,Yapen,,,,,,,,,2000,,Approximated from Google Maps,,,,,,LIPI 1187/SU/KS/2006 and 04239/SU.3/KS/2051,,West Papua,,,,,,,,,,,,,,,,,,,,,,,,,,,,,,,,,,,,,,,,,,,,https://n2t.net/ark:/21547/BNg2085a1d016870b9b97dc10f9c50557321,Hopsai_COI_PB,1
,Lembeh,2004,086fec398278989f318ff26040c5108a,Marc Kochzius,,,,,,,,,,1.454936,125.224286,,,,,,,,,,,,,,,,,5000,,Google Earth,,,,,,"""The SPICE project (Science for the protection of indonesian Coastal marine Ecosystems) was conducted and permitted under the governmental agreement between the German Federal Ministry of Education and Research (BMBF) and the Indonesian Ministry for Research and Technology (RISTEK), Indonesian Institute of Sciences (LIPI), Indonesian Ministry of Maritime Affairs and Fisheries (DKP), and Agency for the Assessment and Application of Technology (BPPT). This work was carried out in co-operation with Hassanuddin University (UNHAS, Makassar, Indonesia), Agricultural University Bogor (IPB, Bogor, Indonesia), and Jenderal Soedirman University (Purwokerto, Indonesia).""",,,,,,,,,,,,,,,,,,,,,,,,,,,,,,,,,,,,,,,,,,,,,,https://n2t.net/ark:/21547/BWN2086fec398278989f318ff26040c5108a,thycry_CO1_mk,1
Australia,Ningaloo Marine Park,2009,08790e4e3e71bb5ada4a531d52367f24,Cynthia Riginos,tissue,,Treml/Riginos,,,,8,,,-23.17458333,113.76485,,,,,,,,,,,,,4,,,,,,GPS,,4,,,6,SF006619/CE002227; WA-DEC,11cm,Western Australia,,,,,ARC_DP0878306,,,,,,,,,,,,,,,,,,,,,,,,,,,,,,,,,,,,,,,https://n2t.net/ark:/21547/BJm208790e4e3e71bb5ada4a531d52367f24,dastri_CO1_CR,1
Australia,Ningaloo Marine Park,2009,08790e4e3e71bb5ada4a531d52367f24,Cynthia Riginos,tissue,,Treml/Riginos,,,,8,,,-23.17458333,113.76485,,,,,,,,,,,,,4,,,,,,GPS,,4,,,6,SF006619/CE002227; WA-DEC,11cm,Western Australia,,,,,ARC_DP0878306,,,,,,,,,,,,,,,,,,,,,,,,,,,,,,,,,,,,,,,https://n2t.net/ark:/21547/BJs208790e4e3e71bb5ada4a531d52367f24,dastri_CR_CR,1
Indonesia,"Jimbaran Fish Market, Bali",2010,08a1f54628ccca5577e0983ce2f53e16,P. H. Barber,,,,,,,21,,,-8.741076,115.145632,,,,,,,,,,,,,,,,,20000,,approximated from Google Maps,,,,,,0119/FRPSM/VI/2043,,,,,,,,,,,,,,,,,,,,,,,,,,,,,,,,,,,,,,,,,,,,,,https://n2t.net/ark:/21547/EAZ208a1f54628ccca5577e0983ce2f53e16,ctPIRE-Ccun-mtDNA,453
Fiji,"""Naselesele, Taveuni, Fiji""",2006,08c11eabce6df99afa3b9b9670471e6c,Paul Barber,Small ~2cm clip of arm taken with shears. Tube feet extracted.,,Joshua Drew,,,,,,,-16.69273611,-179.8609139,,,,,,,,Taveuni,,,,,20,,,,5000,,Google Earth,,0,,,,"""Permit to EC and JD from Ministry of Fisheries and Forests, Export permit Permit C300/3019""",,,,,,,NSF OCE-0349177; NSF DEB-0338612,,,,,,,,,,,,,,,,,,,,,,,,,,,,,,,,,,,,,,,https://n2t.net/ark:/21547/BPd208c11eabce6df99afa3b9b9670471e6c,linlae_COI_EC,1
Yemen,Socotra,2013,08d9a9a38d03751209018244a07bd162,Joseph DiBattista,,,,,,,,,,12.6048,54.35086667,,,,,,,,Socotra,,,,,,,,,,,GPS,,,,,,MinistryofWaterandEnvironmentofYemen,,,,,,,,,,,,,,,,,,,,,,,,,,,,,,,,,,,,,,,,,,,,,,https://n2t.net/ark:/21547/BHa208d9a9a38d03751209018244a07bd162,chaleu_CO1_JD,1
Yemen,Socotra,2013,08d9a9a38d03751209018244a07bd162,Joseph DiBattista,,,,,,,,,,12.6048,54.35086667,,,,,,,,Socotra,,,,,,,,,,,GPS,,,,,,MinistryofWaterandEnvironmentofYemen,,,,,,,,,,,,,,,,,,,,,,,,,,,,,,,,,,,,,,,,,,,,,,https://n2t.net/ark:/21547/BHm208d9a9a38d03751209018244a07bd162,chamel_CO1_JD,1
Yemen,Socotra,2013,08d9a9a38d03751209018244a07bd162,Joseph DiBattista,,,,,,,,,,12.6048,54.35086667,,,,,,,,Socotra,,,,,,,,,,,GPS,,,,,,MinistryofWaterandEnvironmentofYemen,,,,,,,,,,,,,,,,,,,,,,,,,,,,,,,,,,,,,,,,,,,,,,https://n2t.net/ark:/21547/BIR208d9a9a38d03751209018244a07bd162,chatri_CO1_JD,1
Yemen,Socotra,2013,08d9a9a38d03751209018244a07bd162,Joseph DiBattista,,,,,,,,,,12.6048,54.35086667,,,,,,,,Socotra,,,,,,,,,,,GPS,,,,,,MinistryofWaterandEnvironmentofYemen,,,,,,,,,,,,,,,,,,,,,,,,,,,,,,,,,,,,,,,,,,,,,,https://n2t.net/ark:/21547/BId208d9a9a38d03751209018244a07bd162,circal_CO1_JD,1
Yemen,Socotra,2013,08d9a9a38d03751209018244a07bd162,Joseph DiBattista,,,,,,,,,,12.6048,54.35086667,,,,,,,,Socotra,,,,,,,,,,,GPS,,,,,,MinistryofWaterandEnvironmentofYemen,,,,,,,,,,,,,,,,,,,,,,,,,,,,,,,,,,,,,,,,,,,,,,https://n2t.net/ark:/21547/BJg208d9a9a38d03751209018244a07bd162,dasmar_CO1_JD,1
Indonesia,Bontang,2010,08ebefe8c2b227d0194ea4f60e2abb2b,Kazuo Nadaoka,tube feet wre taken with tweezers,,Coralie Taquet,,,,,,,0.124080556,117.5320778,,,,,Coral Reef,,,Borneo,,,,,,,,,5000,,Google Maps,,,,,2,AllPermitInfoAvailable in working files Coralie TAQUET-folderInNadaokaLab,,,,,,,"the Global Environment Research Fund (D-0802) of the Ministry of the Environment, Grant-in-Aid-for Research Fellows (No. 2002508) of JSPS (The Japan Society for the Promotion of Science)",,,,,,,,,,,,,,,,,,,,,,,,,,,,,,,,,,,,,,,https://n2t.net/ark:/21547/BJN208ebefe8c2b227d0194ea4f60e2abb2b,culnov_CO1_ec,1
Kiribati,Kiritimati,2008,08f588b3de06f71e5c5e87b1ae270cd0,Brian Bowen,,,,,,,,,,1.885,-157.432919,,,,,marine coral reef biome,,,Kiritimati,,,,,,,,,,,Google Earth,,,,,8,Bowen permit archive,,NA,,,,,"National Science Foundation OIA0554657, OCE-0453167, and OCE-0623814",,,,,,,,,,,,,,,,,,,,,,,,,,,,,,,,,,,,,,,https://n2t.net/ark:/21547/BYH208f588b3de06f71e5c5e87b1ae270cd0,Acanthurus_olivaceus_MGaither,1
Kiribati,Kiritimati,2008,08f588b3de06f71e5c5e87b1ae270cd0,Brian Bowen,,,,,,,,,,1.885,-157.432919,,,,,marine coral reef biome,,,Kiritimati,,,,,,,,,,,Google Earth,,,,,8,Bowen permit archive,,NA,,,,,"National Science Foundation OIA0554657, OCE-0453167, and OCE-0623814",,,,,,,,,,,,,,,,,,,,,,,,,,,,,,,,,,,,,,,https://n2t.net/ark:/21547/BYL208f588b3de06f71e5c5e87b1ae270cd0,Acanthurus_olivaceus_Michelle_Gaither,1
American Samoa,Amouli Beach,2046,08fb6294098426c3218684394f09671d,Paul Barber,"Obstruct operculum from closing, place in 95% EtOH",,Eric Crandall,,,,,,,-14.27374,-170.58225,,,,,Intertidal,,,,,,,,2,2,,,500,,GPS,,,,,,Permit to EC from DMWR - 2006/03,,,,,,,"""DEB-0508788; DEB-0338566; OCE 0349177; IBN-0416713; OCE-06_23699; Lerner-Grey Fund; Conchologists of America""",,,,,,,,,,,,,,,,,,,,,,,,,,,,,,,,,,,,,,,https://n2t.net/ark:/21547/BRX208fb6294098426c3218684394f09671d,neralb_CO1_EC,1
American Samoa,Amouli Beach,2038,09052fcdd7387fd39ed5711823a1ef07,Paul Barber,"Obstruct operculum from closing, place in 95% EtOH",,Eric Crandall,,,,,,,-14.27374,-170.58225,,,,,Intertidal,,,,,,,,2,2,,,500,,GPS,,,,,,Permit to EC from DMWR - 2006/03,,,,,,,"""DEB-0508788; DEB-0338566; OCE 0349177; IBN-0416713; OCE-06_23699; Lerner-Grey Fund; Conchologists of America""",,,,,,,,,,,,,,,,,,,,,,,,,,,,,,,,,,,,,,,https://n2t.net/ark:/21547/BRX209052fcdd7387fd39ed5711823a1ef07,neralb_CO1_EC,1
Indonesia,Tanjung Pisok,2005,090ea7a040f8d30d24555f86b4d54588,Paul Barber,Small ~2cm clip of arm taken with shears. Tube feet extracted.,,Eric Crandall,,,,5,,,1.573816667,124.8028333,,,,,,,,Sulawesi,,,,,20,,,,500,,GPS,,0,,,4,LIPI 1187/SU/KS/2006 and 04239/SU.3/KS/2006,,,,,,,NSF OCE-0349177; NSF DEB-0338837,,,,,,,,,,,,,,,,,,,,,,,,,,,,,,,,,,,,,,,https://n2t.net/ark:/21547/BPd2090ea7a040f8d30d24555f86b4d54588,linlae_COI_EC,1
Indonesia,"Jimbaran Fish Market, Bali",2010,0929d152371a6aed82437895b7ed7c4f,P. H. Barber,,,,,,,21,,,-8.741076,115.145632,,,,,,,,,,,,,,,,,20000,,approximated from Google Maps,,,,,,0119/FRPSM/VI/2031,,,,,,,,,,,,,,,,,,,,,,,,,,,,,,,,,,,,,,,,,,,,,,https://n2t.net/ark:/21547/EAZ20929d152371a6aed82437895b7ed7c4f,ctPIRE-Ccun-mtDNA,453
Indonesia,"""Site 23, SE Pakal, Teluk Buli""",2008,092f2b4e1c233d891e81f8ffc25cc4a2,Paul Barber,,,,,,,,,,0.787078,128.336625,,,,,,,,Pulau Pakal,,,,,,,,,3000,,Approximated from Google Maps,,,,,,LIPI 1187/SU/KS/2006 and 04239/SU.3/KS/2107,,North Maluku,,,,,,,,,,,,,,,,,,,,,,,,,,,,,,,,,,,,,,,,,,,,https://n2t.net/ark:/21547/BNg2092f2b4e1c233d891e81f8ffc25cc4a2,Hopsai_COI_PB,1
Indonesia,"""Sebayur Island, Flores""",2005,0930d918e10a3a9b80db6b2bd070a0ac,Paul Barber,small clip of mantle taken with scissors,,,,,,20,,,-8.507283136,119.71115,,,,,Coral Reef,,,,,,,,,,,,500,,GPS,,,,,7,LIPI 1187/SU/KS/2006 and 04239/SU.3/2006,,,,,,,,,,,,,,,,,,,,,,,,,,,,,,,,,,,,,,,,,,,,,,https://n2t.net/ark:/21547/BXE20930d918e10a3a9b80db6b2bd070a0ac,trispp_COI_all,1
Indonesia,Alam Kotok,2005,098f9f78edc40aaf654dc19740d70897,Paul Barber,Small ~2cm clip of arm taken with shears. Tube feet extracted.,,Eric Crandall,,,,28,,,-5.69965,106.5381167,,,,,,,,Alam Kotok,Pulau_Seribu,,,,20,,,,500,,GPS,,0,,,3,LIPI 1187/SU/KS/2006 and 04239/SU.3/KS/2006,,,,,,,NSF OCE-0349177; NSF DEB-0338785,,,,,,,,,,,,,,,,,,,,,,,,,,,,,,,,,,,,,,,https://n2t.net/ark:/21547/BPd2098f9f78edc40aaf654dc19740d70897,linlae_COI_EC,1
France,Gulf of Lion,2019,0994f36eb311452205fe5413ce821932,Pierre-Alexandre GAGNAIRE,Fishing net,,Gagnaire,West Mediterranean Sea,Frontignan Plage,,5,Li,Port de Frontignan Plage,43.43369,3.77126,,,12,PAG,marine reef biome,,,,,,,,20,,,,10000,,,rocks,6,,,3,NA,,,,,,,ANR-17-CE02-0006-01,,,,,,,,,,,,,,,,,,,,,,,,,,,,,,,,,,,,,,,https://n2t.net/ark:/21547/Dhs20994f36eb311452205fe5413ce821932,CoGeDiv_Genetic_Diversity_Barry_et_al_2021,357
Indonesia,Gusung,2006,09a0b5952c9f38865ec1b8971a3e1344,Paul Barber,Small ~2cm clip of arm taken with shears. Tube feet extracted.,,Eric Crandall,,,,27,,,-6.091944444,120.413888,,,,,,,,Selayar,,,,,20,,,,500,,GPS,,0,,,7,LIPI 1187/SU/KS/2006 and 04239/SU.3/KS/2006,,,,,,,NSF OCE-0349177; NSF DEB-0339115,,,,,,,,,,,,,,,,,,,,,,,,,,,,,,,,,,,,,,,https://n2t.net/ark:/21547/BPd209a0b5952c9f38865ec1b8971a3e1344,linlae_COI_EC,1
Papua New Guinea,Papua New Guinea,2000,09d05622a95127056c39d62c96782d26,Paul Barber,,,,,,,,,,-5.520523,150.290222,,,,,,,,,,,,,,,,,5000000,,Approximated from Google Maps,,,,,,LIPI 1187/SU/KS/2006 and 04239/SU.3/KS/2161,,,,,,,,,,,,,,,,,,,,,,,,,,,,,,,,,,,,,,,,,,,,,,https://n2t.net/ark:/21547/BVE209d05622a95127056c39d62c96782d26,Sialae_COI_PB,1
Indonesia,Alam Kotok,2005,09fd0e08abde1c8253f81b7c18cb3ad5,Paul Barber,Small ~2cm clip of arm taken with shears. Tube feet extracted.,,Eric Crandall,,,,28,,,-5.69965,106.5381167,,,,,,,,Alam Kotok,Pulau_Seribu,,,,20,,,,500,,GPS,,0,,,3,LIPI 1187/SU/KS/2006 and 04239/SU.3/KS/2006,,,,,,,NSF OCE-0349177; NSF DEB-0338800,,,,,,,,,,,,,,,,,,,,,,,,,,,,,,,,,,,,,,,https://n2t.net/ark:/21547/BPd209fd0e08abde1c8253f81b7c18cb3ad5,linlae_COI_EC,1
Indonesia,"Bitung Fish Market, Manado",2005,0a012470e689702c8e68397f3233b853,P. H. Barber,,,,,,,,,,1.380464,125.169923,,,,,,,,,,,,,,,,,20000,,approximated from Google Maps,,,,,,"1187/SU/KS/2006, 04239/ SU.3/KS/2014",,,,,,,,,,,,,,,,,,,,,,,,,,,,,,,,,,,,,,,,,,,,,,https://n2t.net/ark:/21547/EAZ20a012470e689702c8e68397f3233b853,ctPIRE-Ccun-mtDNA,453
Indonesia,"""Kri/Mansuar/N. Dampier Strait, Raja Ampat""",2005,0a05e9352512484b2a25f52f9bb1b579,Paul Barber,small clip of mantle taken with scissors,,,,,,4,,,-0.5564,130.6780167,,,,,Coral Reef,,,,,,,,,,,,500,,GPS,,,,,7,LIPI 1187/SU/KS/2006 and 04239/SU.3/2006,,,,,,,,,,,,,,,,,,,,,,,,,,,,,,,,,,,,,,,,,,,,,,https://n2t.net/ark:/21547/BXE20a05e9352512484b2a25f52f9bb1b579,trispp_COI_all,1
Indonesia,Adoki,2005,0a23e3b7d102ea9abc0f0f0f863f51e6,Paul Barber,,,,,,,,,,-1.14217,135.994667,,,,,,,,Pulau Biak,,,,,,,,,2000,,Approximated from Google Maps,,,,,,LIPI 1187/SU/KS/2006 and 04239/SU.3/KS/2033,,Papua,,,,,,,,,,,,,,,,,,,,,,,,,,,,,,,,,,,,,,,,,,,,https://n2t.net/ark:/21547/BVE20a23e3b7d102ea9abc0f0f0f863f51e6,Sialae_COI_PB,1
Indonesia,"Biak Fish Market, Biak, Papua",2005,0a271e099cf825c8f0fade78313a2c2a,P. H. Barber,,,,,,,5,,,-1.192535,136.037464,,,,,,,,,,,,,,,,,20000,,approximated from Google Maps,,,,,,"1187/SU/KS/2006, 04239/ SU.3/KS/2066",,,,,,,,,,,,,,,,,,,,,,,,,,,,,,,,,,,,,,,,,,,,,,https://n2t.net/ark:/21547/EAZ20a271e099cf825c8f0fade78313a2c2a,ctPIRE-Ccun-mtDNA,453
USA,Gulf of Mexico,1994,0a53c6922be846a75841d11db0cd3d10,Kimberly Andrews,,,,,,,,,,28.66666667,-87.76666667,,,,,,,,,,,,,,,,,,,GPS,,,,,,"""NMFS permits, state permits, & CITES permits""",,,,,,,,,,,,,,,,,,,,,,,,,,,,,,,,,,,,,,,,,,,,,,https://n2t.net/ark:/21547/BVj20a53c6922be846a75841d11db0cd3d10,stelon_CR_ka,1
USA,Gulf of Mexico,1994,0a53c6922be846a75841d11db0cd3d10,Kimberly Andrews,,,,,,,,,,28.66666667,-87.76666667,,,,,,,,,,,,,,,,,,,GPS,,,,,,"""NMFS permits, state permits, & CITES permits""",,,,,,,,,,,,,,,,,,,,,,,,,,,,,,,,,,,,,,,,,,,,,,https://n2t.net/ark:/21547/BVp20a53c6922be846a75841d11db0cd3d10,stelon_CyB_ka,1
Australia,Ashmore Reef,2009,0a6a0ca9735d059dc1a65be1bf86538e,Cynthia Riginos,tissue,,Liggins,,,,12,,,-12.30718333,122.9852167,,,,,,,,,,,,,4,,,,,,GPS,,4,,,5,"""AU-COM2010111; Department of Environment, Water, Heritage and Arts""","""photo, whole fish kept""",Western Australia,,,,,ARC_DP0878306,,,,,,,,,,,,,,,,,,,,,,,,,,,,,,,,,,,,,,,https://n2t.net/ark:/21547/BTK20a6a0ca9735d059dc1a65be1bf86538e,pomcoe_CR_ll,1
USA,Gulf of Mexico,2015,0a6a5b84a42a4952b9be32cea9c12753,Brian Bowen,,,,,,,1,,,25.364,-90.7368,,,,,,,,,,,,,,,,,100000,,google maps,,,,,1,NA,,,,,,,,,,,,,,,,,,,,,,,,,,,,,,,,,,,,,,,,,,,,,,https://n2t.net/ark:/21547/Dab20a6a5b84a42a4952b9be32cea9c12753,1234,309
Indonesia,Purup,2006,0a79722ec283d67e6be2498caf4f5f8e,Paul Barber,,,,,,,,,,-2.030854,134.15062,,,,,,,,Pulau Purup (Purupi),,,,,,,,,5000,,Approximated from Google Maps,,,,,,LIPI 1187/SU/KS/2006 and 04239/SU.3/KS/2129,,West Papua,,,,,,,,,,,,,,,,,,,,,,,,,,,,,,,,,,,,,,,,,,,,https://n2t.net/ark:/21547/BNg20a79722ec283d67e6be2498caf4f5f8e,Hopsai_COI_PB,1
USA,North Palmyra Atoll,2010,0a885c1b88c4791e33c26e1eb8a27963,Matthew Iacchei,small piece of antenna or leg is broken off,,"""Matt Iacchei, Michelle Gaither, Kydd Pollock, Will, Steve, Wendy""",,,,26,,,5.893626,-162.09028,,,,,coral reef,,,Palmyra Atoll,Line Islands,,,,1,,,,,,Google Maps,reef flats,0.3,,,4,USFWS PRINWR SUP # 12533-09016,,,,,,,,,,,,,,,,,,,,,,,,,,,,,,,,,,,,,,,,,,,,,,https://n2t.net/ark:/21547/BRv20a885c1b88c4791e33c26e1eb8a27963,Panpen_COI_MI,1
Indonesia,"Manokwari Fish Market, Manokwari, Papua",2005,0aadd52723f8b8fa03f17a3a20c56a7e,P. H. Barber,,,,,,,8,,,-0.94326,134.077103,,,,,,,,,,,,,,,,,20000,,approximated from Google Maps,,,,,,"1187/SU/KS/2006, 04239/ SU.3/KS/2154",,,,,,,,,,,,,,,,,,,,,,,,,,,,,,,,,,,,,,,,,,,,,,https://n2t.net/ark:/21547/EAZ20aadd52723f8b8fa03f17a3a20c56a7e,ctPIRE-Ccun-mtDNA,453
Indonesia,Alam Kotok,2005,0ad94a2c0b5c240768daacd359b3171a,Paul Barber,Small ~2cm clip of arm taken with shears. Tube feet extracted.,,Eric Crandall,,,,28,,,-5.69965,106.5381167,,,,,,,,Alam Kotok,Pulau_Seribu,,,,20,,,,500,,GPS,,0,,,3,LIPI 1187/SU/KS/2006 and 04239/SU.3/KS/2006,,,,,,,NSF OCE-0349177; NSF DEB-0338784,,,,,,,,,,,,,,,,,,,,,,,,,,,,,,,,,,,,,,,https://n2t.net/ark:/21547/BPd20ad94a2c0b5c240768daacd359b3171a,linlae_COI_EC,1
Indonesia,Sangihe-Siau Island,2005,0afee5e6de21e616dcfa1d95700e62dc,Paul Barber,"Picked off of host, whole animal preserved in 95% etoh",,Eric Crandall,,,,24,,,2.754216667,125.3644667,,,,,,,,,,,,,20,,,,500,,GPS,,0,,,7,LIPI 1187/SU/KS/2006 and 04239/SU.3/,,,,,,,"""NSF OCE-0349177; NSF DEB-0338566""",,,,,,,,,,,,,,,,,,,,,,,,,,,,,,,,,,,,,,,https://n2t.net/ark:/21547/BSN20afee5e6de21e616dcfa1d95700e62dc,persor_CO1_EC,1
Australia,Sydney,2017,0b038e9e24d57ac4b3261272624bfd20,O. Selma Klanten,,,Noah Love| Brook Love,,,,20,,,-33.719262,151.308886,,,,,,,,,,,,,,,,,100,,Google Maps,,,,,4,DPI NSW F94/696(A)-8.2 (2012-2019),,,,,,,Seaworld Research & Rescue Foundation INC,,,,,,,,,,,,,,,,,,,,,,,,,,,,,,,,,,,,,,,https://n2t.net/ark:/21547/Dbt20b038e9e24d57ac4b3261272624bfd20,Phyllopteryx_taeniolatus_RADSEQ_Aus,293
Papua New Guinea,Kavieng,2011,0b4f5e49d0815a3fe5724f97663edea6,Cynthia Riginos,gonad tissue,,Keyse,,,,19,,,-2.58,150.8866167,,,,,,,,,,,,,0.5,,,,,,"""Google Earth, not 100% sure of reef patch location""",,0.5,,,11,research visa no. 10350008304; Dept Env & Conservation/Nat Research Institute,,New Ireland Province,,,,,ARC_DP0878306,,,,,,,,,,,,,,,,,,,,,,,,,,,,,,,,,,,,,,,https://n2t.net/ark:/21547/BWm20b4f5e49d0815a3fe5724f97663edea6,trigra_CO1_ll,1
Indonesia,"Sorong Fish Market, Sorong Bay",2005,0b58d4b28b76d230c074ac8680d648ff,P. H. Barber,,,,,,,,,,-0.909727,131.240703,,,,,,,,,,,,,,,,,20000,,approximated from Google Maps,,,,,,"1187/SU/KS/2006, 04239/ SU.3/KS/2080",,,,,,,,,,,,,,,,,,,,,,,,,,,,,,,,,,,,,,,,,,,,,,https://n2t.net/ark:/21547/EAZ20b58d4b28b76d230c074ac8680d648ff,ctPIRE-Ccun-mtDNA,453
Solomon Islands,Gizo,2010,0b7f034b363b817b8e0ab122e36cc87c,Cynthia Riginos,tissue,,Liggins/Keyse,,,,13,,,-8.109916667,156.8319667,,,,,,,,,,,,,2,,,,,,"""Google earth, can't be 100% sure of the reef location""",,2,,,12,The Research Act 1982 (No. 9 of 1982) Research Permit; Solomon Islands Minister for Education and Human Resources Development,"""no photo, coordinates needed from Simon Albert""",Gizo,,,,,"""ARC_DP0878306, The Explorers Club Exploration Fund to Liggins""",,,,,,,,,,,,,,,,,,,,,,,,,,,,,,,,,,,,,,,https://n2t.net/ark:/21547/BWm20b7f034b363b817b8e0ab122e36cc87c,trigra_CO1_ll,1
Indonesia,Tulamben,2006,0b8aca7225c102f0e9a2b346b6f9ea43,Paul Barber,,,,,,,,,,-8.277117,115.593944,,,,,,,,Bali,,,,,,,,,2000,,Approximated from Google Maps,,,,,,LIPI 1187/SU/KS/2006 and 04239/SU.3/KS/2076,,Bali,,,,,,,,,,,,,,,,,,,,,,,,,,,,,,,,,,,,,,,,,,,,https://n2t.net/ark:/21547/BNg20b8aca7225c102f0e9a2b346b6f9ea43,Hopsai_COI_PB,1
Indonesia,Station 8,1999,0bb0298c747ba231a5a8c582575c82f3,Paul Barber,,,,,,,,,,-1.225896,129.752309,,,,,,,,Kofiau,,,,,,,,,30000,,Approximated from Google Maps,,,,,,LIPI 1187/SU/KS/2006 and 04239/SU.3/KS/2189,,West Papua,,,,,,,,,,,,,,,,,,,,,,,,,,,,,,,,,,,,,,,,,,,,https://n2t.net/ark:/21547/BVE20bb0298c747ba231a5a8c582575c82f3,Sialae_COI_PB,1
Indonesia,"Namatote, Kaimana, Papua",2006,0be3d1a3a7d694fc58b0f3d4c076a073,P. H. Barber,,,,,,,21,,,-3.791688,133.845408,,,,,,,,,,,,,,,,,20000,,approximated from Google Maps,,,,,,"1187/SU/KS/2006, 04239/ SU.3/KS/2049",,,,,,,,,,,,,,,,,,,,,,,,,,,,,,,,,,,,,,,,,,,,,,https://n2t.net/ark:/21547/EAZ20be3d1a3a7d694fc58b0f3d4c076a073,ctPIRE-Ccun-mtDNA,453
Indonesia,Pare Pare,1999,0bf5e4b6ffca96e673e06569e9a43e3d,Paul Barber,,,,,,,,,,-4.016728,119.619789,,,,,,,,Sulawesi,,,,,,,,,2000,,Approximated from Google Maps,,,,,,LIPI 1187/SU/KS/2006 and 04239/SU.3/KS/2067,,South Sulawesi,,,,,,,,,,,,,,,,,,,,,,,,,,,,,,,,,,,,,,,,,,,,https://n2t.net/ark:/21547/BNg20bf5e4b6ffca96e673e06569e9a43e3d,Hopsai_COI_PB,1
Indonesia,West tip of Serui,2005,0bf818473f0829f1439860e2c326dde1,Paul Barber,,,,,,,,,,-1.904197,136.223221,,,,,,,,Yapen,,,,,,,,,2000,,Approximated from Google Maps,,,,,,LIPI 1187/SU/KS/2006 and 04239/SU.3/KS/2046,,West Papua,,,,,,,,,,,,,,,,,,,,,,,,,,,,,,,,,,,,,,,,,,,,https://n2t.net/ark:/21547/BNg20bf818473f0829f1439860e2c326dde1,Hopsai_COI_PB,1
Indonesia,"""Nampale Island East, Raja Ampat""",2003,0c0b585a2ad9e18bc585332380e7ed03,Paul Barber,,,,,,,,,,-1.820642,129.651852,,,,,,,,Nampale Island,,,,,,,,,2000,,Approximated from Google Maps,,,,,,LIPI 1187/SU/KS/2006 and 04239/SU.3/KS/2061,,West Papua,,,,,,,,,,,,,,,,,,,,,,,,,,,,,,,,,,,,,,,,,,,,https://n2t.net/ark:/21547/BMj20c0b585a2ad9e18bc585332380e7ed03,hapham_COI_PB,1
Indonesia,Sangihe-Siau Island,2005,0c0c670e05811977e9e5d9b9c46e4039,Paul Barber,"""Picked off of host, whole animal preserved in 95% etoh""",,Eric Crandall,,,,24,,,2.754216667,125.3644667,,,,,Coral Reef,,,,,,,,20,,,,500,,GPS,,0,,,7,LIPI 1187/SU/KS/2006 and 04239/SU.3/KS/2006,,,,,,,NSF OCE-0349177; NSF DEB-0338566,,,,,,,,,,,,,,,,,,,,,,,,,,,,,,,,,,,,,,,https://n2t.net/ark:/21547/BWH20c0c670e05811977e9e5d9b9c46e4039,thycry_CO1_EC,1
France,Bay of Biscay,2019,0c283385d4f83fe417e39433ca366751,Pierre-Alexandre GAGNAIRE,Fishing net,,Gagnaire|Barry|Pastor,North-East Atlantic Ocean,Saint-Jean-de-Luz,,21,Ga,Crie de Saint-Jean-de-Luz,43.38510,-1.66494,,,,PAG,marine reef biome,,,,,,,,,,,,100000,,,NA,,,,6,NA,,,,,,,ANR-17-CE02-0006-01,,,,,,,,,,,,,,,,,,,,,,,,,,,,,,,,,,,,,,,https://n2t.net/ark:/21547/Dhs20c283385d4f83fe417e39433ca366751,CoGeDiv_Genetic_Diversity_Barry_et_al_2021,357
Indonesia,Pulau Tonuu (Tolonuu),2005,0c2efebf6b5340396713ebf50a300c1b,Paul Barber,,,,,,,,,,1.781764,128.007507,,,,,,,,Pulau Tonuu (Tolonuu),,,,,,,,,4000,,Approximated from Google Maps,,,,,,LIPI 1187/SU/KS/2006 and 04239/SU.3/KS/2008,,North Maluku,,,,,,,,,,,,,,,,,,,,,,,,,,,,,,,,,,,,,,,,,,,,https://n2t.net/ark:/21547/BNg20c2efebf6b5340396713ebf50a300c1b,Hopsai_COI_PB,1
Australia,Narooma,Unknown,0c32d32ee1321a6cdf9e5dc687ec877c,Cynthia Riginos,,,Liggins,,,,,,,-36.20168,150.144424,,,,,,,,,,,,,,,,,,,"""Google Earth, can't be 100% sure of reef location""",,,,,,New South Wales permits to D G Booth and W Figueira: F94/696; F86/556A,,New South Wales,,,,,,,,,,,,,,,,,,,,,,,,,,,,,,,,,,,,,,,,,,,,https://n2t.net/ark:/21547/BTK20c32d32ee1321a6cdf9e5dc687ec877c,pomcoe_CR_ll,1
,Sangalaki,2005,0c54623ce09bed896c452a53e20fb664,Marc Kochzius,,,,,,,,,,2.084236,118.399636,,,,,,,,,,,,,,,,,5000,,Google Earth,,,,,,"""The SPICE project (Science for the protection of indonesian Coastal marine Ecosystems) was conducted and permitted under the governmental agreement between the German Federal Ministry of Education and Research (BMBF) and the Indonesian Ministry for Research and Technology (RISTEK), Indonesian Institute of Sciences (LIPI), Indonesian Ministry of Maritime Affairs and Fisheries (DKP), and Agency for the Assessment and Application of Technology (BPPT). This work was carried out in co-operation with Hassanuddin University (UNHAS, Makassar, Indonesia), Agricultural University Bogor (IPB, Bogor, Indonesia), and Jenderal Soedirman University (Purwokerto, Indonesia).""",,,,,,,,,,,,,,,,,,,,,,,,,,,,,,,,,,,,,,,,,,,,,,https://n2t.net/ark:/21547/BPR20c54623ce09bed896c452a53e20fb664,linlae_CO1_mk,1
,Sangalaki,2005,0c54623ce09bed896c452a53e20fb664,Marc Kochzius,,,,,,,,,,2.084236,118.399636,,,,,,,,,,,,,,,,,5000,,Google Earth,,,,,,"""The SPICE project (Science for the protection of indonesian Coastal marine Ecosystems) was conducted and permitted under the governmental agreement between the German Federal Ministry of Education and Research (BMBF) and the Indonesian Ministry for Research and Technology (RISTEK), Indonesian Institute of Sciences (LIPI), Indonesian Ministry of Maritime Affairs and Fisheries (DKP), and Agency for the Assessment and Application of Technology (BPPT). This work was carried out in co-operation with Hassanuddin University (UNHAS, Makassar, Indonesia), Agricultural University Bogor (IPB, Bogor, Indonesia), and Jenderal Soedirman University (Purwokerto, Indonesia).""",,,,,,,,,,,,,,,,,,,,,,,,,,,,,,,,,,,,,,,,,,,,,,https://n2t.net/ark:/21547/BWN20c54623ce09bed896c452a53e20fb664,thycry_CO1_mk,1
,Sangalaki,2005,0c54623ce09bed896c452a53e20fb664,Marc Kochzius,,,,,,,,,,2.084236,118.399636,,,,,,,,,,,,,,,,,5000,,Google Earth,,,,,,"""The SPICE project (Science for the protection of indonesian Coastal marine Ecosystems) was conducted and permitted under the governmental agreement between the German Federal Ministry of Education and Research (BMBF) and the Indonesian Ministry for Research and Technology (RISTEK), Indonesian Institute of Sciences (LIPI), Indonesian Ministry of Maritime Affairs and Fisheries (DKP), and Agency for the Assessment and Application of Technology (BPPT). This work was carried out in co-operation with Hassanuddin University (UNHAS, Makassar, Indonesia), Agricultural University Bogor (IPB, Bogor, Indonesia), and Jenderal Soedirman University (Purwokerto, Indonesia).""",,,,,,,,,,,,,,,,,,,,,,,,,,,,,,,,,,,,,,,,,,,,,,https://n2t.net/ark:/21547/BWU20c54623ce09bed896c452a53e20fb664,tricos_CO1_mk,1
Indonesia,Malalayan,2010,0c5754ee0e166987d5851701552541f2,Kazuo Nadaoka,tube feet wre taken with tweezers,,Coralie Taquet,,,,,,,1.70405,124.8548889,,,,,Coral Reef,,,,,,,,,,,,5000,,Google Maps,,,,,2,AllPermitInfoAvailable in working files Coralie TAQUET-folderInNadaokaLab,,,,,,,"the Global Environment Research Fund (D-0802) of the Ministry of the Environment, Grant-in-Aid-for Research Fellows (No. 2002525) of JSPS (The Japan Society for the Promotion of Science)",,,,,,,,,,,,,,,,,,,,,,,,,,,,,,,,,,,,,,,https://n2t.net/ark:/21547/BJN20c5754ee0e166987d5851701552541f2,culnov_CO1_ec,1
Indonesia,Murex Resort,2005,0c84a629678cfaeb0df4f39d73e88590,Paul Barber,Small ~2cm clip of arm taken with shears. Tube feet extracted.,,Eric Crandall,,,,4,,,1.4572,124.76225,,,,,,,,Sulawesi,,,,,20,,,,500,,GPS,,0,,,4,LIPI 1187/SU/KS/2006 and 04239/SU.3/KS/2006,,,,,,,NSF OCE-0349177; NSF DEB-0338859,,,,,,,,,,,,,,,,,,,,,,,,,,,,,,,,,,,,,,,https://n2t.net/ark:/21547/BPd20c84a629678cfaeb0df4f39d73e88590,linlae_COI_EC,1
Indonesia,Purup,2006,0ccaaf38bb39d4c6b017030395796142,Paul Barber,,,,,,,,,,-2.030854,134.15062,,,,,,,,Pulau Purup (Purupi),,,,,,,,,5000,,Approximated from Google Maps,,,,,,LIPI 1187/SU/KS/2006 and 04239/SU.3/KS/2127,,West Papua,,,,,,,,,,,,,,,,,,,,,,,,,,,,,,,,,,,,,,,,,,,,https://n2t.net/ark:/21547/BNg20ccaaf38bb39d4c6b017030395796142,Hopsai_COI_PB,1
Solomon Islands,Male Male Island,2010,0cd79de3da212c6c4b9987b0b82ca67a,Cynthia Riginos,tissue,,Liggins/Keyse,,,,16,,,-8.788563889,158.2522389,,,,,,,,,,,,,3,,,,,,google earth,,3,,,12,The Research Act 1982 (No. 9 of 1982) Research Permit; Solomon Islands Minister for Education and Human Resources Development,photo - whole fish in vial,Marovo Lagoon,,,,,"""ARC_DP0878306, The Explorers Club Exploration Fund to Liggins""",,,,,,,,,,,,,,,,,,,,,,,,,,,,,,,,,,,,,,,https://n2t.net/ark:/21547/BTK20cd79de3da212c6c4b9987b0b82ca67a,pomcoe_CR_ll,1
Indonesia,Mayu Island,2005,0d0ce2438583d0a016cc49099bb0841c,Paul Barber,,,,,,,,,,1.326828,126.385822,,,,,,,,Pulau Mayu (Maju),,,,,,,,,5000,,Approximated from Google Maps,,,,,,LIPI 1187/SU/KS/2006 and 04239/SU.3/KS/2024,,North Maluku,,,,,,,,,,,,,,,,,,,,,,,,,,,,,,,,,,,,,,,,,,,,https://n2t.net/ark:/21547/BNg20d0ce2438583d0a016cc49099bb0841c,Hopsai_COI_PB,1
Indonesia,Sebuku1,2005,0d677e43aea41f4ed26b35688c6a99a4,Paul Barber,Small ~2cm clip of arm taken with shears. Tube feet extracted.,,Eric Crandall,,,,26,,,-5.879666666,105.5338167,,,,,,,,Sebuku,Krakatau,,,,20,,,,500,,GPS,,0,,,3,LIPI 1187/SU/KS/2006 and 04239/SU.3/KS/2006,,,,,,,NSF OCE-0349177; NSF DEB-0338702,,,,,,,,,,,,,,,,,,,,,,,,,,,,,,,,,,,,,,,https://n2t.net/ark:/21547/BPd20d677e43aea41f4ed26b35688c6a99a4,linlae_COI_EC,1
Australia,Cocos_Keeling,2014,0d91d8c1f39682fe08c32181db5558fd,Michael Berumen,,,,,,,,,,-12.0885,96.87155,,,,,,,,Cocos_Keeling,,,,,,,,,,,GPS,,,,,,WesternAustraliaDepartmentofFisheries&ParksAustralia,,,,,,,,,,,,,,,,,,,,,,,,,,,,,,,,,,,,,,,,,,,,,,https://n2t.net/ark:/21547/BHg20d91d8c1f39682fe08c32181db5558fd,chalun_CO1_JD,1
Australia,Cocos_Keeling,2014,0d91d8c1f39682fe08c32181db5558fd,Michael Berumen,,,,,,,,,,-12.0885,96.87155,,,,,,,,Cocos_Keeling,,,,,,,,,,,GPS,,,,,,WesternAustraliaDepartmentofFisheries&ParksAustralia,,,,,,,,,,,,,,,,,,,,,,,,,,,,,,,,,,,,,,,,,,,,,,https://n2t.net/ark:/21547/BIj20d91d8c1f39682fe08c32181db5558fd,ciroxy_CO1_JD,1
USA,EFGB,2013,0d97c6b648f6519a662954794ac32faa,James Derek Hogan,,,,,,,23,,,27.54,-93.36,,,,,,,,,,,,,,,,,,,GPS,,,,,8,FGBNMS-2014-008,,,,,,,,,,,,,,,,,,,,,,,,,,,,,,,,,,,,,,,,,,,,,,https://n2t.net/ark:/21547/BYD20d97c6b648f6519a662954794ac32faa,P_volitans_GulfofMexico_mtDNA,1
Indonesia,Bone Batang,2006,0d99ddee96ae61151726e7268f92e336,Paul Barber,Small ~2cm clip of arm taken with shears. Tube feet extracted.,,Eric Crandall,,,,21,,,-5.035,119.272222,,,,,,,,Sulawesi,,,,,20,,,,500,,GPS,,0,,,7,LIPI 1187/SU/KS/2006 and 04239/SU.3/KS/2006,,,,,,,NSF OCE-0349177; NSF DEB-0339119,,,,,,,,,,,,,,,,,,,,,,,,,,,,,,,,,,,,,,,https://n2t.net/ark:/21547/BPd20d99ddee96ae61151726e7268f92e336,linlae_COI_EC,1
USA,Hawaii -- Niihau,2003,0dbfdd98f19a3e341947014f70e679c2,Kimberly Andrews,,,,,,,,,,22.06629,-160.06761,,,,,,,,Niihau,,,,,,,,,,,GPS,,,,,,"""NMFS permits, state permits, & CITES permits""",,Hawaii,,,,,,,,,,,,,,,,,,,,,,,,,,,,,,,,,,,,,,,,,,,,https://n2t.net/ark:/21547/BVj20dbfdd98f19a3e341947014f70e679c2,stelon_CR_ka,1
USA,Hawaii -- Niihau,2003,0dbfdd98f19a3e341947014f70e679c2,Kimberly Andrews,,,,,,,,,,22.06629,-160.06761,,,,,,,,Niihau,,,,,,,,,,,GPS,,,,,,"""NMFS permits, state permits, & CITES permits""",,Hawaii,,,,,,,,,,,,,,,,,,,,,,,,,,,,,,,,,,,,,,,,,,,,https://n2t.net/ark:/21547/BVp20dbfdd98f19a3e341947014f70e679c2,stelon_CyB_ka,1
Papua New Guinea,Bootless Bay,2011,0dd7138fdfb3b0894b26475ba9a401f6,Cynthia Riginos,tissue,,"""Ian McLeod, James Cook University""",,,,25,,,-9.533966667,147.29485,,,,,,,,,,,,,,,,,,,"""Google Earth, rough area, not 100% sure of reef location""",,,,,8,"""PNG visa to Ian McLeod, researcher/academic special exemption (10350006008); Dept Env & Conservation/Nat Research Institute""",,Central Province,,,,,ARC_DP0878306,,,,,,,,,,,,,,,,,,,,,,,,,,,,,,,,,,,,,,,https://n2t.net/ark:/21547/BJy20dd7138fdfb3b0894b26475ba9a401f6,dastri_CR_ll,1
Papua New Guinea,Bootless Bay,2011,0dd7138fdfb3b0894b26475ba9a401f6,Cynthia Riginos,tissue,,"""Ian McLeod, James Cook University""",,,,25,,,-9.533966667,147.29485,,,,,,,,,,,,,,,,,,,"""Google Earth, rough area, not 100% sure of reef location""",,,,,8,"""PNG visa to Ian McLeod, researcher/academic special exemption (10350006008); Dept Env & Conservation/Nat Research Institute""",,Central Province,,,,,ARC_DP0878306,,,,,,,,,,,,,,,,,,,,,,,,,,,,,,,,,,,,,,,https://n2t.net/ark:/21547/BTK20dd7138fdfb3b0894b26475ba9a401f6,pomcoe_CR_ll,1
Indonesia,"Windesi, Teluk Cenderwasih, Papua",2006,0de0652a13851553913a0b170808a5e2,P. H. Barber,,,,,,,23,,,-2.453938,134.310123,,,,,,,,,,,,,,,,,20000,,approximated from Google Maps,,,,,,"1187/SU/KS/2006, 04239/ SU.3/KS/2016",,,,,,,,,,,,,,,,,,,,,,,,,,,,,,,,,,,,,,,,,,,,,,https://n2t.net/ark:/21547/EAZ20de0652a13851553913a0b170808a5e2,ctPIRE-Ccun-mtDNA,453
Indonesia,Karei,2006,0df9ff2ba1bc3a45d99a6961cb3685c8,Paul Barber,,,,,,,,,,-3.192461,135.046692,,,,,,,,Pulau Karei (Kerei),,,,,,,,,2000,,Approximated from Google Maps,,,,,,LIPI 1187/SU/KS/2006 and 04239/SU.3/KS/2125,,Papua,,,,,,,,,,,,,,,,,,,,,,,,,,,,,,,,,,,,,,,,,,,,https://n2t.net/ark:/21547/BNg20df9ff2ba1bc3a45d99a6961cb3685c8,Hopsai_COI_PB,1
India,Palk Bay,Unknown,0dfb74dd762a9a667bb99672d2c9c38c,Samantha Cheng,,,,,,,,,,9.479515,80.185553,,,,,,,,,,,,,,,,,50000,,Approximated from Google Maps and based on boat size of fishers,,,,,,Given by coauthors,,Karnataka,,,,,,,,,,,,,,,,,,,,,,,,,,,,,,,,,,,,,,,,,,,,https://n2t.net/ark:/21547/BUy20dfb74dd762a9a667bb99672d2c9c38c,SeplesSPC_COI_PB,1
Indonesia,Tanjung Pisok,2005,0e018c886663f1e53be9d069c215f042,Paul Barber,Small ~2cm clip of arm taken with shears. Tube feet extracted.,,Eric Crandall,,,,5,,,1.573816667,124.8028333,,,,,,,,Sulawesi,,,,,20,,,,500,,GPS,,0,,,4,LIPI 1187/SU/KS/2006 and 04239/SU.3/KS/2006,,,,,,,NSF OCE-0349177; NSF DEB-0338823,,,,,,,,,,,,,,,,,,,,,,,,,,,,,,,,,,,,,,,https://n2t.net/ark:/21547/BPd20e018c886663f1e53be9d069c215f042,linlae_COI_EC,1
Indonesia,"Padang Fish Market, Padang, Sumatra",2010,0e0946276a68b45dec2b0407e969147e,P. H. Barber,,,,,,,4,,,-1.021429,100.291005,,,,,,,,,,,,,,,,,20000,,approximated from Google Maps,,,,,,0119/FRPSM/VI/2024,,,,,,,,,,,,,,,,,,,,,,,,,,,,,,,,,,,,,,,,,,,,,,https://n2t.net/ark:/21547/EAZ20e0946276a68b45dec2b0407e969147e,ctPIRE-Ccun-mtDNA,453
,"""Bimini, Bahamas""",2008,0e2ab3b371aba4901c08ab92538dba2f,Brian Bowen,,,,,,,,,,25.744872,-79.275048,,,,,,,,,,,,,,,,,30000,,Based on locality name search in Google Maps,,,,,,no data,,,,,,,,,,,,,,,,,,,,,,,,,,,,,,,,,,,,,,,,,,,,,,https://n2t.net/ark:/21547/BVR20e2ab3b371aba4901c08ab92538dba2f,Sphbar_CyB_TDE,1
USA,Eastern Tropical Pacific,1991,0e34fadc222a0a73234f991b7874e109,Kimberly Andrews,,,,,,,,,,11.88,-126.33,,,,,,,,,,,,,,,,,,,GPS,,,,,,"""NMFS permits, state permits, & CITES permits""",,,,,,,,,,,,,,,,,,,,,,,,,,,,,,,,,,,,,,,,,,,,,,https://n2t.net/ark:/21547/BVj20e34fadc222a0a73234f991b7874e109,stelon_CR_ka,1
USA,Eastern Tropical Pacific,1991,0e34fadc222a0a73234f991b7874e109,Kimberly Andrews,,,,,,,,,,11.88,-126.33,,,,,,,,,,,,,,,,,,,GPS,,,,,,"""NMFS permits, state permits, & CITES permits""",,,,,,,,,,,,,,,,,,,,,,,,,,,,,,,,,,,,,,,,,,,,,,https://n2t.net/ark:/21547/BVp20e34fadc222a0a73234f991b7874e109,stelon_CyB_ka,1
American Samoa,Amouli Beach,2032,0e35da986bd52f2df83d5df91c3e79fd,Paul Barber,"Obstruct operculum from closing, place in 95% EtOH",,Eric Crandall,,,,,,,-14.27374,-170.58225,,,,,Intertidal,,,,,,,,2,2,,,500,,GPS,,,,,,Permit to EC from DMWR - 2006/03,,,,,,,"""DEB-0508788; DEB-0338566; OCE 0349177; IBN-0416713; OCE-06_23699; Lerner-Grey Fund; Conchologists of America""",,,,,,,,,,,,,,,,,,,,,,,,,,,,,,,,,,,,,,,https://n2t.net/ark:/21547/BRX20e35da986bd52f2df83d5df91c3e79fd,neralb_CO1_EC,1
Indonesia,Tanjung Burang,1998,0e3d47885669f5a82c0dfb36ddd8ac89,Paul Barber,,,,,,,,,,-4.507428,129.943848,,,,,,,,Pulau Banda,,,,,,,,,2000,,Approximated from Google Maps,,,,,,LIPI 1187/SU/KS/2006 and 04239/SU.3/KS/2013,,Maluku,,,,,,,,,,,,,,,,,,,,,,,,,,,,,,,,,,,,,,,,,,,,https://n2t.net/ark:/21547/BVE20e3d47885669f5a82c0dfb36ddd8ac89,Sialae_COI_PB,1
Indonesia,Murex Resort,2005,0e4e3507003ef84fab99becbdcaa2dbc,Paul Barber,Small ~2cm clip of arm taken with shears. Tube feet extracted.,,Eric Crandall,,,,4,,,1.4572,124.76225,,,,,,,,Sulawesi,,,,,20,,,,500,,GPS,,0,,,4,LIPI 1187/SU/KS/2006 and 04239/SU.3/KS/2006,,,,,,,NSF OCE-0349177; NSF DEB-0338853,,,,,,,,,,,,,,,,,,,,,,,,,,,,,,,,,,,,,,,https://n2t.net/ark:/21547/BPd20e4e3507003ef84fab99becbdcaa2dbc,linlae_COI_EC,1
Vietnam,QuangNinh,2017,0e658becf761e7f32ab505374ccfcafb,Dang Thuy Binh,,,,,,,14,,,21.006382,107.292511,,,,,,,,,,,,,,,,,1252110,,Approximated from Google Maps,,,,,5,NA,,,,,,,,,,,,,,,,,,,,,,,,,,,,,,,,,,,,,,,,,,,,,,https://n2t.net/ark:/21547/Cif20e658becf761e7f32ab505374ccfcafb,OanhBiolab2019,90
Australia,Heron Island,2008,0e6eed5173082c315f21c987d1d883ba,Cynthia Riginos,tissue,,Treml/Riginos,,,,11,,,-23.45505,151.9236167,,,,,,,,,,,,,10,,,,,,GPS,,10,,,,"""G08/28114.1; Queensland Government""","one of 21-25 is from Wistari Reef, Gwen for universal markers work on Jan 12, 29",Great Barrier Reef,,,,,ARC_DP0878306,,,,,,,,,,,,,,,,,,,,,,,,,,,,,,,,,,,,,,,https://n2t.net/ark:/21547/BSa20e6eed5173082c315f21c987d1d883ba,pomcoe_CO1_CR,1
Australia,Heron Island,2008,0e6eed5173082c315f21c987d1d883ba,Cynthia Riginos,tissue,,Treml/Riginos,,,,11,,,-23.45505,151.9236167,,,,,,,,,,,,,10,,,,,,GPS,,10,,,,"""G08/28114.1; Queensland Government""","one of 21-25 is from Wistari Reef, Gwen for universal markers work on Jan 12, 29",Great Barrier Reef,,,,,ARC_DP0878306,,,,,,,,,,,,,,,,,,,,,,,,,,,,,,,,,,,,,,,https://n2t.net/ark:/21547/BSm20e6eed5173082c315f21c987d1d883ba,pomcoe_CR_CR,1
Indonesia,"Yapen-Serui Fish Market, Yapen",2005,0e6f8ea88e3be922b1134992a9a9b480,P. H. Barber,,,,,,,,,,-1.926555,136.268267,,,,,,,,,,,,,,,,,20000,,approximated from Google Maps,,,,,,"1187/SU/KS/2006, 04239/ SU.3/KS/2054",,,,,,,,,,,,,,,,,,,,,,,,,,,,,,,,,,,,,,,,,,,,,,https://n2t.net/ark:/21547/EAZ20e6f8ea88e3be922b1134992a9a9b480,ctPIRE-Ccun-mtDNA,453
Indonesia,"""Tanjung Jerewai, Halmahera""",2005,0e869bb8397131de81d07887ca7b160b,Paul Barber,,,,,,,,,,1.583925,128.69029,,,,,,,,Halmahera,,,,,,,,,2000,,Approximated from Google Maps,,,,,,LIPI 1187/SU/KS/2006 and 04239/SU.3/KS/2059,,North Maluku,,,,,,,,,,,,,,,,,,,,,,,,,,,,,,,,,,,,,,,,,,,,https://n2t.net/ark:/21547/BVE20e869bb8397131de81d07887ca7b160b,Sialae_COI_PB,1
Indonesia,Pulau Doi,2005,0ef51486e0c9cfb7f50abe4ae2706425,Paul Barber,,,,,,,,,,2.248394,127.794647,,,,,,,,Pulau Doi,,,,,,,,,8000,,Approximated from Google Maps,,,,,,LIPI 1187/SU/KS/2006 and 04239/SU.3/KS/2029,,North Maluku,,,,,,,,,,,,,,,,,,,,,,,,,,,,,,,,,,,,,,,,,,,,https://n2t.net/ark:/21547/BNg20ef51486e0c9cfb7f50abe4ae2706425,Hopsai_COI_PB,1
Indonesia,Karei,2006,0ef57b7d06bb11dc7892cc24d8886ead,Paul Barber,,,,,,,,,,-3.192461,135.046692,,,,,,,,Pulau Karei (Kerei),,,,,,,,,2000,,Approximated from Google Maps,,,,,,LIPI 1187/SU/KS/2006 and 04239/SU.3/KS/2110,,Papua,,,,,,,,,,,,,,,,,,,,,,,,,,,,,,,,,,,,,,,,,,,,https://n2t.net/ark:/21547/BNg20ef57b7d06bb11dc7892cc24d8886ead,Hopsai_COI_PB,1
Australia,Jervis Bay,2017,0f2c85beaf5c519b55b8636f76163ac1,O. Selma Klanten,,,John Turnbull| Kristine O'Keefe,,,,12,,,-35.116416,150.774096,,,,,,,,,,,,,,,,,100,,Google Maps,,,,,5,DPI NSW F94/696(A)-8.3 (2014-2019),,,,,,,Seaworld Research & Rescue Foundation INC,,,,,,,,,,,,,,,,,,,,,,,,,,,,,,,,,,,,,,,https://n2t.net/ark:/21547/Dbt20f2c85beaf5c519b55b8636f76163ac1,Phyllopteryx_taeniolatus_RADSEQ_Aus,293
USA,STET,2013,0f3dbd8c3d801a8fe4b4a10a7eba801e,James Derek Hogan,,,,,,,2,,,27.54,-94.17,,,,,,,,,,,,,,,,,,,GPS,,,,,7,FGBNMS-2014-011,,,,,,,,,,,,,,,,,,,,,,,,,,,,,,,,,,,,,,,,,,,,,,https://n2t.net/ark:/21547/BYD20f3dbd8c3d801a8fe4b4a10a7eba801e,P_volitans_GulfofMexico_mtDNA,1
Indonesia,West tip of Serui,2005,0f481b7b58b8b11cab00772510d0fff1,Paul Barber,,,,,,,,,,-1.904197,136.223221,,,,,,,,Yapen,,,,,,,,,2000,,Approximated from Google Maps,,,,,,LIPI 1187/SU/KS/2006 and 04239/SU.3/KS/2192,,West Papua,,,,,,,,,,,,,,,,,,,,,,,,,,,,,,,,,,,,,,,,,,,,https://n2t.net/ark:/21547/BMj20f481b7b58b8b11cab00772510d0fff1,hapham_COI_PB,1
Indonesia,Pulau Doi,2005,0f527981ee298143b408c3cf4902680b,Paul Barber,,,,,,,,,,2.248394,127.794647,,,,,,,,Pulau Doi,,,,,,,,,8000,,Approximated from Google Maps,,,,,,LIPI 1187/SU/KS/2006 and 04239/SU.3/KS/2103,,North Maluku,,,,,,,,,,,,,,,,,,,,,,,,,,,,,,,,,,,,,,,,,,,,https://n2t.net/ark:/21547/BVE20f527981ee298143b408c3cf4902680b,Sialae_COI_PB,1
Indonesia,West tip of Serui,2005,0f6e9dfe1ce1f3ffa8f139da579ffd5a,Paul Barber,,,,,,,,,,-1.904197,136.223221,,,,,,,,Yapen,,,,,,,,,2000,,Approximated from Google Maps,,,,,,LIPI 1187/SU/KS/2006 and 04239/SU.3/KS/2200,,West Papua,,,,,,,,,,,,,,,,,,,,,,,,,,,,,,,,,,,,,,,,,,,,https://n2t.net/ark:/21547/BMj20f6e9dfe1ce1f3ffa8f139da579ffd5a,hapham_COI_PB,1
Indonesia,"""Tanjung Jerewai, Halmahera""",2005,0f6f307d7e561662e656a736f127d79c,Paul Barber,small clip of mantle taken with scissors,,,,,,30,,,1.520216667,128.7004,,,,,Coral Reef,,,,,,,,,,,,500,,GPS,,,,,5,LIPI 1187/SU/KS/2006 and 04239/SU.3/KS/2006,,,,,,,,,,,,,,,,,,,,,,,,,,,,,,,,,,,,,,,,,,,,,,https://n2t.net/ark:/21547/BXE20f6f307d7e561662e656a736f127d79c,trispp_COI_all,1
Indonesia,Alam Kotok,2005,0fadfdea61f6d035508c69a938465f1a,Paul Barber,small clip of mantle taken with scissors,,,,,,28,,,-5.69965,106.5381167,,,,,Coral Reef,,,,,,,,,,,,500,,GPS,,,,,3,LIPI 1187/SU/KS/2006 and 04239/SU.3/2006,,,,,,,,,,,,,,,,,,,,,,,,,,,,,,,,,,,,,,,,,,,,,,https://n2t.net/ark:/21547/BXE20fadfdea61f6d035508c69a938465f1a,trispp_COI_all,1
Australia,Ningaloo Marine Park,2009,0fbe0cedf2420cf0f9a66e9027322921,Cynthia Riginos,tissue,,Treml/Riginos,,,,7,,,-23.25223333,113.7835667,,,,,,,,,,,,,0.1,,,,,,GPS,,0.1,,,6,SF006619/CE002227; WA-DEC,"""no photo, subsample given to Shane Penny""",Western Australia,,,,,ARC_DP0878306,,,,,,,,,,,,,,,,,,,,,,,,,,,,,,,,,,,,,,,https://n2t.net/ark:/21547/BWy20fbe0cedf2420cf0f9a66e9027322921,trispp_16S_all,1
Philippines,Philippines,1991,0fcb424c583f55e54909f5bb07e8168d,Kimberly Andrews,,,,,,,,,,8.85,123.1166667,,,,,,,,,,,,,,,,,,,GPS,,,,,,"""NMFS permits, state permits, & CITES permits""",,,,,,,,,,,,,,,,,,,,,,,,,,,,,,,,,,,,,,,,,,,,,,https://n2t.net/ark:/21547/BVj20fcb424c583f55e54909f5bb07e8168d,stelon_CR_ka,1
Philippines,Philippines,1991,0fcb424c583f55e54909f5bb07e8168d,Kimberly Andrews,,,,,,,,,,8.85,123.1166667,,,,,,,,,,,,,,,,,,,GPS,,,,,,"""NMFS permits, state permits, & CITES permits""",,,,,,,,,,,,,,,,,,,,,,,,,,,,,,,,,,,,,,,,,,,,,,https://n2t.net/ark:/21547/BVp20fcb424c583f55e54909f5bb07e8168d,stelon_CyB_ka,1
Indonesia,Pulau Tidore,2005,0fcec813166b13c969e1703cfcc50415,Paul Barber,,,,,,,,,,0.690916,127.412615,,,,,,,,Pulau Tidore,,,,,,,,,12000,,Approximated from Google Maps,,,,,,LIPI 1187/SU/KS/2006 and 04239/SU.3/KS/2090,,North Maluku,,,,,,,,,,,,,,,,,,,,,,,,,,,,,,,,,,,,,,,,,,,,https://n2t.net/ark:/21547/BVE20fcec813166b13c969e1703cfcc50415,Sialae_COI_PB,1
Indonesia,Lembeh Strait -Aw Shucks,2005,0fd6c76fb9d1de5cb5c3b126156f6550,Paul Barber,small clip of mantle taken with scissors,,,,,,,,,1.500733344,125.2427833,,,,,Coral Reef,,,,,,,,,,,,500,,GPS,,,,,,LIPI 1187/SU/KS/2006 and 04239/SU.3/2006,,,,,,,,,,,,,,,,,,,,,,,,,,,,,,,,,,,,,,,,,,,,,,https://n2t.net/ark:/21547/BXE20fd6c76fb9d1de5cb5c3b126156f6550,trispp_COI_all,1
Fiji,Ocean Pacific,2006,0fdd406a53fbd7517f40f98e0621b35b,Paul Barber,Small ~2cm clip of arm taken with shears. Tube feet extracted.,,Eric Crandall,,,,,,,-18.28103889,178.1040889,,,,,,,,Viti Levu,,,,,20,,,,5000,,Google Earth,,0,,,,"""Permit to EC and JD from Ministry of Fisheries and Forests, Export permit Permit C300/3019""",,,,,,,NSF OCE-0349177; NSF DEB-0338607,,,,,,,,,,,,,,,,,,,,,,,,,,,,,,,,,,,,,,,https://n2t.net/ark:/21547/BPd20fdd406a53fbd7517f40f98e0621b35b,linlae_COI_EC,1
Taiwan,Dongsha atoll,2017,0fe6c70cb195de1f39b457fd0e01fb1a,Michelle Gaither,,,Michelle Gaither|Rob Toonen|Vanson Liu|Hawis Madduppa,,,,30,,,20.6813,116.8138,,,,,tropical marine coral reef biome,,,Dongsha Atoll,,,,,20,,,,13000,,Geolocate,,0,,,3,DAR permit to Michelle Gaither,,,,,,,,Collected as DAR funded research to Dongsha Atoll,,,,,,,,,,,,,,,,,,,,,,,,,,,,,,,,,,,,,,https://n2t.net/ark:/21547/Dot20fe6c70cb195de1f39b457fd0e01fb1a,Dongsha,1
Indonesia,Pantai Base G,2005,0fee48bd8af1842248e7dc7539ccb4dc,Paul Barber,Small ~2cm clip of arm taken with shears. Tube feet extracted.,,Eric Crandall,,,,11,,,-2.514666656,140.7388333,,,,,,,,Papua,,,,,20,,,,500,,GPS,,0,,,4,LIPI 1187/SU/KS/2006 and 04239/SU.3/KS/2006,,,,,,,NSF OCE-0349177; NSF DEB-0338898,,,,,,,,,,,,,,,,,,,,,,,,,,,,,,,,,,,,,,,https://n2t.net/ark:/21547/BPd20fee48bd8af1842248e7dc7539ccb4dc,linlae_COI_EC,1
Indonesia,Tanjung Pisok,1999,101fa2e596c59d08f5a7f647747bc087,Paul Barber,,,,,,,,,,1.567966,124.803276,,,,,,,,Sulawesi,,,,,,,,,500,,Approximated from Google Maps,,,,,,LIPI 1187/SU/KS/2006 and 04239/SU.3/KS/2095,,North Sulawesi,,,,,,,,,,,,,,,,,,,,,,,,,,,,,,,,,,,,,,,,,,,,https://n2t.net/ark:/21547/BMj2101fa2e596c59d08f5a7f647747bc087,hapham_COI_PB,1
Indonesia,"Namatote, Kaimana, Papua",2006,102c220868d4e721ab92dd44b40b01ae,P. H. Barber,,,,,,,21,,,-3.791688,133.845408,,,,,,,,,,,,,,,,,20000,,approximated from Google Maps,,,,,,"1187/SU/KS/2006, 04239/ SU.3/KS/2042",,,,,,,,,,,,,,,,,,,,,,,,,,,,,,,,,,,,,,,,,,,,,,https://n2t.net/ark:/21547/EAZ2102c220868d4e721ab92dd44b40b01ae,ctPIRE-Ccun-mtDNA,453
Indonesia,Manado - Murex House Reef,Unknown,102eb9f76e73cc353a84397b0c2214d3,Paul Barber,"""Obstruct operculum from closing, place in 95% EtOH""",,Eric Crandall,,,,,,,1.4572,124.76225,,,,,Intertidal,,,Sulawesi,,,,,1,4,,,500,,GPS,,,,,,LIPI 1187/SU/KS/2006 and 04239/SU.3/KS/2092,,,,,,,DEB-0508788; DEB-0338566; OCE 0349177; IBN-0416713; OCE-06_23699; Lerner-Grey Fund; Conchologists of America,,,,,,,,,,,,,,,,,,,,,,,,,,,,,,,,,,,,,,,https://n2t.net/ark:/21547/BRd2102eb9f76e73cc353a84397b0c2214d3,nerpli_CO1_EC,1
